especievalida,nombrecomun,categoriaresidenciaaves,longitud,latitud
Abeillia abeillei,colibrí pico corto,Residente (R),-92.1484124,15.0871128
Abeillia abeillei abeillei,colibrí pico corto,Residente (R),-96.3416667,17.6533333
Accipiter bicolor,gavilán bicolor,Residente (R),-89.3328902,18.5042572
Accipiter cooperii,gavilán de Cooper,Residente (R); Migratoria de invierno (MI),-103.518863,19.533456
Accipiter gentilis,gavilán azor,Residente (R),-103.5403837,19.53381
Accipiter striatus,"gavilán pecho canela, gavilán pecho rufo",Residente (R); Migratoria de invierno (MI),-99.1195214,20.0073064
Actitis macularius,playero alzacolita,Migratoria de invierno (MI),-99.4973373,19.1531034
Aechmophorus clarkii,achichilique pico naranja,Residente (R); Migratoria de invierno (MI),-98.9746928,19.2660737
Aechmophorus occidentalis,achichilique pico amarillo,Residente (R); Migratoria de invierno (MI),-111.2557983,27.9689337
Aegolius acadicus,"tecolote afilador, tecolote oyamelero norteño",Residente (R),-103.5403837,19.53381
Aegolius ridgwayi,"tecolote canelo, tecolote oyamelero sureño",Residente (R),-92.4166667,17.1666667
Aeronautes saxatalis,vencejo pecho blanco,Residente (R),-99.1195214,20.0073064
Aeronautes saxatalis saxatalis,vencejo pecho blanco,Residente (R),-101.8683333,21.8183333
Aethia cristatella,"alcuela crestada, alquita crestada",Accidental (A); Oceánica (O),-115.2866667,27.9566667
Agamia agami,garza agami,Residente (R),-91.3075,16.8127778
Agelaius phoeniceus,tordo sargento,Residente (R); Migratoria de invierno (MI),-103.5738524,25.8777308
Agelaius tricolor,tordo tricolor,Residente (R),-117.0033333,32.5333333
Aimophila notosticta,zacatonero oaxaqueño,Residente (R),-96.5470362,17.2867871
Aimophila rufescens,"zacatonero canelo, zacatonero rojizo",Residente (R),-96.4243948,15.9462477
Aimophila ruficeps,"zacatonero corona canela, zacatonero corona rufa",Residente (R),-99.1195214,20.0073064
Aix sponsa,pato arcoíris,Migratoria de invierno (MI),-101.2336599,19.6955962
Amaurolimnas concolor,"rascón café, rascón canelo",Residente (R),-94,17.75
Amaurospiza concolor,"semillero azul, semillero azulgris",Residente (R),-91.6739065,16.0997026
Amazilia rutila,"colibrí canela, colibrí canelo",Residente (R),-100.1943898,17.4221123
Amazilia tzacatl,"colibrí cola canela, colibrí cola rojiza",Residente (R),-95.01698,18.35812
Amazilia tzacatl tzacatl,colibrí cola rojiza,Residente (R),-91.0705556,16.0779167
Amazilia yucatanensis,"colibrí vientre canelo, colibrí yucateco",Residente (R),-95.4289046,18.6097735
Amazilia yucatanensis yucatanensis,colibrí yucateco,Residente (R),-91.3085,16.2022778
Amazona albifrons,loro frente blanca,Residente (R),-96.8705558,15.8469438
Amazona albifrons albifrons,loro frente blanca,Residente (R),-95.0333333,16.7516667
Amazona auropalliata,loro nuca amarilla,Residente (R),-92.4592527,14.8590219
Amazona auropalliata auropalliata,loro nuca amarilla,Residente (R),-91.3065833,16.2008333
Amazona autumnalis,loro cachetes amarillos,Residente (R),-95.01698,18.35812
Amazona autumnalis autumnalis,loro cachete amarillo,Residente (R),-91.30125,16.2028611
Amazona farinosa,loro corona azul,Residente (R),-94.3,17.15
Amazona finschi,loro corona lila,Residente (R),-105.4616669,20.3047219
Amazona oratrix,loro cabeza amarilla,Residente (R),-96.8705558,15.8469438
Amazona oratrix oratrix,loro cabeza amarilla,Residente (R),-98.18,22.055
Amazona viridigenalis,loro tamaulipeco,Residente (R),-98.0166667,24.7666667
Amazona xantholora,loro yucateco,Residente (R),-89.3008333,18.605
Amblycercus holosericeus,cacique pico claro,Residente (R),-89.5540482,21.0237991
Amblycercus holosericeus holosericeus,cacique pico amarillo,Residente (R),-91.0730556,16.0789722
Ammodramus savannarum,gorrión chapulín,Residente (R); Migratoria de invierno (MI),-99.1195214,20.0073064
Ammospiza leconteii,gorrión de Le Conte,Accidental (A),-97.7453613,24.7062915
Ammospiza maritima,gorrión costero,Residente (R),-97.1484947,25.9482821
Ammospiza nelsoni,"gorrión cola aguda de Nelson, gorrión de Nelson",Accidental (A),-114.10656,28.030772
Amphispiza bilineata,zacatonero garganta negra,Residente (R),-114.4300045,28.8824166
Amphispizopsis quinquestriata,zacatonero cinco rayas,Residente (R),-109.67802,28.57998
Anabacerthia variegaticeps,"breñero cejudo, musguero trepador",Residente (R),-95.1468534,18.5228338
Anabacerthia variegaticeps variegaticeps,breñero cejudo,Residente (R),-92,15.9533333
Anas acuta,pato golondrino,Migratoria de invierno (MI),-107.051959,28.778837
Anas crecca,cerceta alas verdes,Migratoria de invierno (MI),-99.4973373,19.1531034
Anas diazi,pato mexicano,Residente (R); Migratoria de invierno (MI),-101.6294444,19.5469444
Anas fulvigula,pato tejano,Residente (R); Migratoria de invierno (MI),-98.13037,26.07351
Anas platyrhynchos,pato de collar,Residente (R); Migratoria de invierno (MI),-99.1991347,19.4178989
Anhinga anhinga,anhinga americana,Residente (R),-86.8196574,21.1464199
Anous minutus,"charrán corona blanca, charrán-bobo negro",Accidental (A); Oceánica (O),-87.2861195,20.4436616
Anous stolidus,"charrán café, charrán-bobo café",Residente (R),-87.0786695,20.6189221
Anser albifrons,ganso careto mayor,Migratoria de invierno (MI),-113.5935403,31.3597974
Anser albifrons albifrons,ganso careto-mayor,Migratoria de invierno (MI),-101.0666667,21.155
Anser caerulescens,ganso blanco,Migratoria de invierno (MI),-104.5032663,24.0877183
Anser rossii,ganso de Ross,Migratoria de invierno (MI),-108.45,30.7666667
Anthracothorax prevostii,colibrí garganta negra,Residente (R); Migratoria de invierno (MI); Migratoria de verano (MV),-87.0275268,20.3097273
Anthracothorax prevostii prevostii,colibrí garganta negra,Residente (R); Migratoria de invierno (MI); Migratoria de verano (MV),-87.2516667,21.535
Anthus cervinus,bisbita garganta roja,Accidental (A),-114.5736909,29.6066679
Anthus hodgsoni,bisbita de oriente,Accidental (A),-114.6964388,29.7290952
Anthus rubescens,"bisbita de agua, bisbita norteamericana",Migratoria de invierno (MI),-100.581523,25.021968
Anthus spragueii,bisbita llanera,Migratoria de invierno (MI),-100.662,24.7654
Antigone canadensis,grulla gris,Migratoria de invierno (MI),-106.3934755,29.4581924
Antrostomus arizonae,tapacaminos cuerporruín mexicano,Residente (R); Migratoria de verano (MV),-99.1195214,20.0073064
Antrostomus badius,"tapacamino huil, tapacaminos yucateco",Residente (R),-86.9159475,20.8526565
Antrostomus carolinensis,"tapacamino de Carolina, tapacaminos de carolina",Migratoria de invierno (MI); Transitoria (T),-94,17.75
Antrostomus ridgwayi,"tapacamino tu-cuchillo, tapacaminos tucuchillo",Residente (R); Migratoria de verano (MV),-105.1196864,20.753688
Antrostomus salvini,"tapacamino ticuer, tapacaminos ticurú",Residente (R),-91.584886,16.980111
Antrostomus vociferus,tapacaminos cuerporruín norteño,Migratoria de invierno (MI),-100.2833333,25.5333333
Aphelocoma californica,chara californiana,Residente (R),-116.6790193,31.8921262
Aphelocoma californica californica,chara occidental,Residente (R),-109.6016667,23.0883333
Aphelocoma ultramarina,"chara pecho gris neovolcánica, chara transvolcánica",Residente (R),-99.249065,19.009524
Aphelocoma ultramarina ultramarina,chara pecho gris,Residente (R),-96.9283333,19.545
Aphelocoma unicolor,chara unicolor,Residente (R),-100.1943898,17.4221123
Aphelocoma unicolor unicolor,chara unicolor,Residente (R),-92.0933333,16.9016667
Aphelocoma wollweberi,chara pecho gris,Residente (R),-102.7214072,21.7216511
Aphelocoma woodhouseii,chara de collar,Residente (R),-101.1433333,23.2957992
Aquila chrysaetos,águila real,Residente (R); Migratoria de invierno (MI),-100.581523,25.021968
Ara macao,guacamaya roja,Residente (R),-92.65,15.35
Ara militaris,guacamaya verde,Residente (R),-102.2227777,18.5430558
Aramides albiventris,rascón nuca canela,Residente (R),-88.3018971,18.493776
Aramides axillaris,"rascón cuello canela, rascón cuello rufo",Residente (R),-105.246459,21.528242
Aramus guarauna,carrao,Residente (R),-88.2353052,18.8797935
Archilochus alexandri,colibrí barba negra,Migratoria de invierno (MI); Migratoria de verano (MV),-105.4724853,20.3953046
Archilochus colubris,colibrí garganta rubí,Migratoria de invierno (MI); Transitoria (T),-100.1943898,17.4221123
Ardea alba,garza blanca,Residente (R); Migratoria de invierno (MI),-89.0320753,18.4323762
Ardea herodias,garza morena,Residente (R); Migratoria de invierno (MI),-101.1582096,19.648509
Ardea herodias herodias,garza morena,Residente (R); Migratoria de invierno (MI),-114.4266667,29.965
Ardenna bulleri,pardela de Buller,Transitoria (T); Oceánica (O),-117.305961,32.214524
Ardenna carneipes,pardela patas pálidas,Transitoria (T); Oceánica (O),-109.25,22.2333
Ardenna creatopus,pardela patas rosadas,Transitoria (T); Oceánica (O),-111.2557983,27.9689337
Ardenna gravis,pardela mayor,Accidental (A); Oceánica (O),-87.679503,21.514806
Ardenna grisea,pardela gris,Transitoria (T); Oceánica (O),-111.2557983,27.9689337
Ardenna pacifica,pardela cola cuña,Residente (R); Transitoria (T); Oceánica (O),-96.234524,15.476918
Ardenna tenuirostris,pardela cola corta,Transitoria (T); Oceánica (O),-100.2667,16.85
Arenaria interpres,vuelvepiedras rojizo,Migratoria de invierno (MI),-97.7375,23.7916667
Arenaria melanocephala,vuelvepiedras negro,Migratoria de invierno (MI),-113.5321021,31.3265914
Arremon aurantiirostris,rascador pico naranja,Residente (R),-94.3,17.15
Arremon brunneinucha,"atlapetes gorra castaña, rascador gorra castaña",Residente (R),-100.1943898,17.4221123
Arremon virenticeps,"atlapetes rayas verdes, rascador cejas verdes",Residente (R),-102.007923,19.490593
Arremonops chloronotus,rascador dorso verde,Residente (R),-86.7262085,21.2276851
Arremonops chloronotus chloronotus,rascador dorso verde,Residente (R),-91.3075,16.1900278
Arremonops rufivirgatus,rascador oliváceo,Residente (R),-100.1943898,17.4221123
Artemisiospiza belli,zacatonero californiano,Residente (R),-115.996292,30.461875
Artemisiospiza nevadensis,zacatonero de artemisas,Migratoria de invierno (MI),-113.4333468,31.2874132
Asio clamator,"búho cara blanca, búho cara clara",Residente (R),-92.5560716,15.0554438
Asio flammeus,"búho cuerno corto, búho sabanero",Migratoria de invierno (MI),-114.580252,30.032752
Asio flammeus flammeus,búho cuerno corto,Migratoria de invierno (MI),-98.745,20.125
Asio otus,"búho cara café, búho cara canela",Residente (R); Migratoria de invierno (MI),-102.233884,22.348508
Asio stygius,búho cara oscura,Residente (R),-103.5403837,19.53381
Aspatha gularis,momoto garganta azul,Residente (R),-92.10799,15.09471
Athene cunicularia,tecolote llanero,Residente (R); Migratoria de invierno (MI),-100.581523,25.021968
Atlapetes albinucha,"atlapetes nuca blanca, rascador nuca blanca",Residente (R),-98.03407,20.211076
Atlapetes albinucha albinucha,atlapetes nuca blanca,Residente (R),-97.02,19.4183333
Atlapetes pileatus,"atlapetes gorra rufa, rascador gorra canela",Residente (R),-103.518863,19.533456
Atlapetes pileatus pileatus,atlapetes gorra rufa,Residente (R),-97.02,19.4183333
Atticora pileata,golondrina gorra negra,Residente (R),-92.0902778,15.075
Attila spadiceus,"Atila, mosquero atila",Residente (R),-96.4243948,15.9462477
Aulacorhynchus prasinus,"tucancillo verde, tucaneta verde",Residente (R),-100.1943898,17.4221123
Aulacorhynchus prasinus prasinus,tucaneta verde,Residente (R),-91.3065833,16.2008333
Auriparus flaviceps,baloncillo,Residente (R),-109.544274,28.4573233
Auriparus flaviceps flaviceps,baloncillo,Residente (R),-109.7833333,23.45
Automolus ochrolaemus,"breñero garganta pálida, musguero garganta pálida",Residente (R),-95.1468534,18.5228338
Aythya affinis,pato boludo menor,Migratoria de invierno (MI),-104.8109772,21.5174243
Aythya americana,pato cabeza roja,Residente (R); Migratoria de invierno (MI),-97.741616,23.767161
Aythya collaris,pato pico anillado,Migratoria de invierno (MI),-101.0526506,22.1508291
Aythya marila,pato boludo mayor,Migratoria de invierno (MI),-114.055155,27.9695368
Aythya valisineria,pato coacoxtle,Migratoria de invierno (MI),-89.583436,21.2923604
Baeolophus atricristatus,carbonero cresta negra,Residente (R),-102.755127,28.9556669
Baeolophus inornatus,"carbonero encinero, carbonero sencillo",Residente (R),-115.9085083,32.0453328
Baeolophus wollweberi,carbonero embridado,Residente (R),-102.9783333,18.755
Bartramia longicauda,zarapito ganga,Transitoria (T),-98.8679914,19.4905512
Basileuterus belli,chipe cejas doradas,Residente (R),-100.1943898,17.4221123
Basileuterus belli belli,chipe ceja dorada,Residente (R),-97.3333333,18.7
Basileuterus culicivorus,"chipe cejas negras, chipe corona dorada",Residente (R),-100.1943898,17.4221123
Basileuterus culicivorus culicivorus,chipe corona dorada,Residente (R),-96.8666667,19.3666667
Basileuterus lachrymosus,"chipe de roca, pavito de rocas",Residente (R),-100.1943898,17.4221123
Basileuterus rufifrons,"chipe gorra canela, chipe gorra rufa",Residente (R),-100.1943898,17.4221123
Basileuterus rufifrons rufifrons,chipe gorra rufa,Residente (R),-96.6833333,18.3833333
Basilinna leucotis,"zafiro oreja blanca, zafiro orejas blancas",Residente (R),-99.1195214,20.0073064
Basilinna xantusii,"zafiro bajacaliforniano, zafiro de Xantus",Residente (R),-110.221748,23.449437
Bolborhynchus lineola,"perico barrado, periquito barrado",Residente (R),-91.6739065,16.0997026
Bombycilla cedrorum,"ampelis chinito, chinito",Migratoria de invierno (MI),-96.4243948,15.9462477
Botaurus lentiginosus,avetoro norteño,Residente (R); Migratoria de invierno (MI),-97.0666667,20.5
Botaurus pinnatus,avetoro neotropical,Residente (R),-91.9952202,17.7202149
Brachyramphus marmoratus,alca marmoleada,Accidental (A); Oceánica (O),-116.6256237,31.8517525
Branta bernicla,ganso de collar,Migratoria de invierno (MI),-109.2345923,26.405194
Branta canadensis,"ganso canadiense, ganso canadiense mayor",Migratoria de invierno (MI),-107.1130085,29.2594112
Branta hutchinsii,"ganso cacareador, ganso canadiense menor",Migratoria de invierno (MI),-106.4263405,31.6877979
Brotogeris jugularis,"perico ala amarilla, periquito alas amarillas",Residente (R),-92.8918767,15.4802515
Bubo virginianus,búho cornudo,Residente (R),-99.1195214,20.0073064
Bubulcus ibis,garza ganadera,Residente (R); Migratoria de invierno (MI),-100.1943898,17.4221123
Bucephala albeola,pato monja,Migratoria de invierno (MI),-113.5288954,31.2964638
Bucephala clangula,pato chillón,Migratoria de invierno (MI),-109.2345923,26.405194
Bucephala islandica,pato islándico,Accidental (A),-113.4917092,31.3189611
Bulweria bulwerii,petrel de Bulwer,Accidental (A); Oceánica (O),-86.975555,20.475686
Burhinus bistriatus,alcaraván americano,Residente (R),-95.966681,18.849211
Burhinus bistriatus bistriatus,alcaraván americano,Residente (R),-93.9833333,16.5833333
Busarellus nigricollis,aguililla canela,Residente (R),-95.1468534,18.5228338
Busarellus nigricollis nigricollis,aguililla canela,Residente (R),-96.2733333,18.9033333
Buteo albonotatus,aguililla aura,Residente (R); Migratoria de invierno (MI); Migratoria de verano (MV),-95.01698,18.35812
Buteo brachyurus,aguililla cola corta,Residente (R),-91.577934,16.967433
Buteo jamaicensis,"aguililla cola roja, águila cola roja",Residente (R); Migratoria de invierno (MI),-100.2394965,25.7954522
Buteo lagopus,aguililla ártica,Migratoria de invierno (MI),-108.0029389,31.1033683
Buteo lineatus,aguililla pecho rojo,Residente (R); Migratoria de invierno (MI),-100.0923359,25.6678167
Buteo lineatus lineatus,aguililla pecho rojo,Residente (R); Migratoria de invierno (MI),-104.4383333,19.6333333
Buteo plagiatus,aguililla gris,Residente (R),-100.1943898,17.4221123
Buteo platypterus,aguililla alas anchas,Migratoria de invierno (MI); Transitoria (T),-100.1943898,17.4221123
Buteo platypterus platypterus,aguililla ala ancha,Migratoria de invierno (MI); Transitoria (T),-94.8833333,18.3166667
Buteo regalis,aguililla real,Migratoria de invierno (MI),-100.581523,25.021968
Buteo swainsoni,aguililla de Swainson,Migratoria de verano (MV); Transitoria (T),-110.099659,23.3950452
Buteogallus anthracinus,aguililla negra menor,Residente (R); Migratoria de verano (MV),-100.1943898,17.4221123
Buteogallus anthracinus anthracinus,aguililla-negra menor,Residente (R); Migratoria de verano (MV),-107.0166667,24.4183333
Buteogallus solitarius,águila solitaria,Residente (R),-100.1943898,17.4221123
Buteogallus urubitinga,aguililla negra mayor,Residente (R),-94.3,17.15
Butorides virescens,"garceta verde, garcita verde",Residente (R); Migratoria de invierno (MI),-89.0320753,18.4323762
Butorides virescens virescens,garceta verde,Residente (R); Migratoria de invierno (MI),-99.1833333,24.0166667
Cairina moschata,pato real,Residente (R),-90.6670354,16.4666922
Calamospiza melanocorys,gorrión alas blancas,Migratoria de invierno (MI),-100.581523,25.021968
Calcarius lapponicus,escribano ártico,Accidental (A),-100.727967,24.8960325
Calcarius ornatus,escribano collar castaño,Migratoria de invierno (MI),-108.349,30.7114
Calidris acuminata,playero de cola afilada,Accidental (A),-110.9527383,18.7269151
Calidris alba,playero blanco,Migratoria de invierno (MI),-99.7637598,16.748347
Calidris alpina,playero dorso rojo,Migratoria de invierno (MI),-113.5288954,31.2964638
Calidris bairdii,playero de Baird,Transitoria (T),-98.9434957,19.2491515
Calidris canutus,"playero canuto, playero rojo",Migratoria de invierno (MI),-114.1785049,27.8032469
Calidris canutus canutus,playero canuto,Migratoria de invierno (MI),-114.8333333,31.0233333
Calidris ferruginea,playero zarapito,Accidental (A),-105.264473,21.5456249
Calidris fuscicollis,playero rabadilla blanca,Transitoria (T),-86.8428464,20.4236795
Calidris himantopus,playero zancón,Migratoria de invierno (MI); Transitoria (T),-105.603236,22.5731411
Calidris maritima,playero oscuro,Accidental (A),-105.267692,21.515467
Calidris mauri,playero occidental,Migratoria de invierno (MI); Transitoria (T),-99.7637598,16.748347
Calidris melanotos,playero pectoral,Migratoria de invierno (MI); Transitoria (T),-99.4973373,19.1531034
Calidris minuta,"playero menor, playero menudo",Accidental (A),-116.6373229,31.7079954
Calidris minutilla,"playero chichicuilote, playero diminuto",Migratoria de invierno (MI),-99.4973373,19.1531034
Calidris pugnax,playero combatiente,Accidental (A),-114.0392772,27.9659841
Calidris pusilla,playero semipalmeado,Migratoria de invierno (MI); Transitoria (T),-95.0140351,16.3339469
Calidris subruficollis,"playero leonado, playero ocre",Transitoria (T),-90.3677845,20.8925877
Calidris virgata,"playero brincaolas, playero roquero",Migratoria de invierno (MI),-110.8741435,23.955613
Callipepla californica,codorniz californiana,Residente (R),-116.678509,32.548971
Callipepla douglasii,codorniz cresta dorada,Residente (R),-109.544274,28.4573233
Callipepla douglasii douglasii,codorniz cresta dorada,Residente (R),-107.0166667,24.4183333
Callipepla gambelii,"codorniz chiquiri, codorniz de Gambel",Residente (R),-109.2345923,26.405194
Callipepla squamata,codorniz escamosa,Residente (R),-103.5738524,25.8777308
Callipepla squamata squamata,codorniz escamosa,Residente (R),-100.135,25.5483333
Calocitta colliei,"urraca cara negra, urraca-hermosa cara negra",Residente (R),-105.1531213,21.5057976
Calocitta formosa,"urraca cara blanca, urraca-hermosa cara blanca",Residente (R),-96.5787015,15.6707987
Calocitta formosa formosa,urraca-hermosa cara blanca,Residente (R),-105.325,20.3166667
Calonectris diomedea,pardela de Cory,Accidental (A); Oceánica (O),-95.9367015,18.8980371
Calothorax lucifer,colibrí lucifer,Residente (R); Migratoria de invierno (MI); Migratoria de verano (MV),-99.1195214,20.0073064
Calothorax pulcher,"colibrí mixteco, colibrí tijereta oaxaqueño",Residente (R),-94.8912506,16.598907
Calypte anna,colibrí cabeza roja,Residente (R); Migratoria de invierno (MI),-114.0385838,27.9763292
Calypte costae,colibrí cabeza violeta,Residente (R); Migratoria de invierno (MI),-111.8385315,24.4502436
Campephilus guatemalensis,"carpintero pico plata, carpintero pico plateado",Residente (R),-100.1943898,17.4221123
Campephilus guatemalensis guatemalensis,carpintero pico plata,Residente (R),-91.3088056,16.1921111
Campephilus imperialis,carpintero imperial,Residente (R),-108.9866667,30.12
Camptostoma imberbe,"mosquerito chillón, mosquero lampiño",Residente (R),-89.0320753,18.4323762
Camptostoma imberbe imberbe,mosquero lampiño,Residente (R),-93.9833333,16.5833333
Campylopterus hemileucurus,fandanguero morado,Residente (R),-93.2736111,16.8694444
Campylopterus hemileucurus hemileucurus,fandanguero morado,Residente (R),-92.0933333,16.9016667
Campylorhynchus brunneicapillus,matraca del desierto,Residente (R),-100.581523,25.021968
Campylorhynchus chiapensis,matraca chiapaneca,Residente (R),-92.2333156,14.8890147
Campylorhynchus gularis,matraca serrana,Residente (R),-108.034941,27.320249
Campylorhynchus jocosus,matraca del Balsas,Residente (R),-96.510774,17.0098918
Campylorhynchus megalopterus,matraca barrada,Residente (R),-103.518863,19.533456
Campylorhynchus rufinucha,"matraca nuca canela, matraca nuca rufa",Residente (R),-100.1943898,17.4221123
Campylorhynchus rufinucha rufinucha,matraca nuca rufa,Residente (R),-95.9333333,18.8833333
Campylorhynchus yucatanicus,matraca yucateca,Residente (R),-89.83825,21.248864
Campylorhynchus zonatus,matraca tropical,Residente (R),-95.01698,18.35812
Cantorchilus modestus,"chivirín modesto, saltapared chinchibul",Residente (R),-100.1943898,17.4221123
Caracara lutosa,caracara de Isla Guadalupe,Residente (R),-118.2666666,29
Caracara plancus cheriway,caracara quebrantahuesos,Residente (R),-95.01698,18.35812
Cardellina canadensis,chipe de collar,Transitoria (T),-92.3415291,17.1707024
Cardellina pusilla,chipe corona negra,Migratoria de invierno (MI),-100.1943898,17.4221123
Cardellina rubra,chipe rojo,Residente (R),-100.1943898,17.4221123
Cardellina rubrifrons,chipe cara roja,Migratoria de invierno (MI); Migratoria de verano (MV),-105.5,23.6166667
Cardellina versicolor,chipe rosado,Residente (R),-92.528605,16.673972
Cardinalis cardinalis,cardenal rojo,Residente (R),-89.0320753,18.4323762
Cardinalis sinuatus,"cardenal desértico, cardenal pardo",Residente (R),-103.5738524,25.8777308
Cardinalis sinuatus sinuatus,cardenal pardo,Residente (R),-105.7766667,22.8316667
Caryothraustes poliogaster,picogordo cara negra,Residente (R),-91.577934,16.967433
Caryothraustes poliogaster poliogaster,picogordo cara negra,Residente (R),-91.2991389,16.2030556
Cassiculus melanicterus,cacique mexicano,Residente (R),-100.1943898,17.4221123
Cathartes aura,zopilote aura,Residente (R),-100.1943898,17.4221123
Cathartes aura aura,zopilote aura,Residente (R),-91.0730556,16.0789722
Cathartes burrovianus,zopilote sabanero,Residente (R),-91.9952202,17.7202149
Catharus aurantiirostris,zorzal pico naranja,Residente (R); Migratoria de invierno (MI),-100.1943898,17.4221123
Catharus dryas,zorzal pecho amarillo,Residente (R),-92.085257,15.086542
Catharus frantzii,zorzal de Frantzius,Residente (R),-100.1943898,17.4221123
Catharus fuscescens,"zorzal canelo, zorzal rojizo",Transitoria (T),-96.0906816,19.0674862
Catharus guttatus,"zorzal cola canela, zorzal cola rufa",Migratoria de invierno (MI),-97.4172547,18.9481856
Catharus mexicanus,zorzal corona negra,Residente (R),-95.1468534,18.5228338
Catharus minimus,zorzal cara gris,Transitoria (T),-89.6579445,20.9770287
Catharus occidentalis,zorzal mexicano,Residente (R),-99.211,19.022
Catharus ustulatus,"zorzal de Swainson, zorzal de anteojos",Migratoria de invierno (MI); Transitoria (T),-100.1943898,17.4221123
Catherpes mexicanus,"chivirín barranqueño, saltapared barranqueño",Residente (R),-99.1014007,18.9658571
Catherpes mexicanus mexicanus,chivirín barranqueño,Residente (R),-91.3063333,16.2067778
Celeus castaneus,carpintero castaño,Residente (R),-89.0833,18.5
Centronyx bairdii,gorrión de Baird,Migratoria de invierno (MI),-108.349,30.7114
Cepphus columba,arao pichón,Accidental (A); Oceánica (O),-117.270703,32.4257477
Cepphus columba columba,arao pichón,Accidental (A); Oceánica (O),-117.25,32.4333333
Ceratopipra mentalis,"manaquín cabeza roja, saltarín cabeza roja",Residente (R),-94.3,17.15
Cercomacroides tyrannina,"hormiguero cantor, hormiguero tirano",Residente (R),-96.3405674,17.6638143
Cerorhinca monocerata,alca rinoceronte,Migratoria de invierno (MI); Oceánica (O),-116.6363525,31.1752098
Certhia americana,"trepador americano, trepadorcito americano",Residente (R); Migratoria de invierno (MI),-103.518863,19.533456
Chaetura pelagica,vencejo de chimenea,Transitoria (T),-97.7851868,23.7798469
Chaetura vauxi,vencejo de Vaux,Residente (R); Transitoria (T),-100.1943898,17.4221123
Chamaea fasciata,camea,Residente (R),-116.499413,31.795886
Charadrius collaris,chorlo de collar,Residente (R),-99.7637598,16.748347
Charadrius melodus,chorlo chiflador,Migratoria de invierno (MI),-87.295299,20.4281749
Charadrius montanus,chorlo llanero,Migratoria de invierno (MI),-101.240392,22.017981
Charadrius morinellus,chorlo carambolo,Accidental (A),-116.813035,32.0676288
Charadrius nivosus,chorlo nevado,Residente (R); Migratoria de invierno (MI); Migratoria de verano (MV),-113.5288954,31.2964638
Charadrius nivosus nivosus,chorlo nevado,Residente (R); Migratoria de invierno (MI); Migratoria de verano (MV),-90.395,20.8616667
Charadrius semipalmatus,chorlo semipalmeado,Migratoria de invierno (MI),-99.7637598,16.748347
Charadrius vociferus,chorlo tildío,Residente (R); Migratoria de invierno (MI),-100.581523,25.021968
Charadrius vociferus vociferus,chorlo tildío,Residente (R); Migratoria de invierno (MI),-112.84,31.8583333
Charadrius wilsonia,chorlo pico grueso,Residente (R); Migratoria de invierno (MI),-97.7375,23.7916667
Charadrius wilsonia wilsonia,chorlo pico grueso,Residente (R); Migratoria de invierno (MI),-98,22.2166667
Chiroxiphia linearis,"manaquín cola larga, saltarín toledo",Residente (R),-92.8918767,15.4802515
Chlidonias niger,charrán negro,Migratoria de invierno (MI); Transitoria (T),-113.5321021,31.3265914
Chlorestes candida,colibrí cándido,Residente (R); Migratoria de invierno (MI),-95.01698,18.35812
Chlorestes candida candida,colibrí cándido,Residente (R); Migratoria de invierno (MI),-94.1333333,16.3866667
Chlorestes eliciae,zafiro garganta azul,Residente (R),-92.850105,15.592826
Chloroceryle aenea,martín pescador enano,Residente (R),-88.3196818,18.5067885
Chloroceryle amazona,martín pescador amazónico,Residente (R),-99.2978668,23.0203401
Chloroceryle americana,martín pescador verde,Residente (R),-109.5463004,28.4557269
Chlorophanes spiza,mielero verde,Residente (R),-91.9898987,17.3781632
Chlorophonia elegantissima,"eufonia capucha azul, eufonia gorra azul",Residente (R),-96.4243948,15.9462477
Chlorophonia occipitalis,clorofonia corona azul,Residente (R),-95.1468534,18.5228338
Chlorospingus flavopectus,chinchinero común,Residente (R),-100.1943898,17.4221123
Chondestes grammacus,gorrión arlequín,Residente (R); Migratoria de invierno (MI),-109.928211,23.657133
Chondestes grammacus grammacus,gorrión arlequín,Residente (R); Migratoria de invierno (MI),-99.5,17.55
Chondrohierax uncinatus,gavilán pico de gancho,Residente (R); Migratoria de invierno (MI),-99.1195214,20.0073064
Chondrohierax uncinatus uncinatus,gavilán pico gancho,Residente (R); Migratoria de invierno (MI),-105.59,23.0666667
Chordeiles acutipennis,chotacabras menor,Residente (R); Migratoria de invierno (MI); Migratoria de verano (MV),-109.4380975,23.2440669
Chordeiles minor,chotacabras zumbón,Migratoria de verano (MV); Transitoria (T),-95,16.9266667
Chroicocephalus philadelphia,gaviota de Bonaparte,Migratoria de invierno (MI),-113.5288954,31.2964638
Cinclus mexicanus,mirlo acuático norteamericano,Residente (R),-98.03407,20.211076
Circus hudsonius,gavilán rastrero,Residente (R); Migratoria de invierno (MI),-100.581523,25.021968
Cistothorus palustris,"chivirín pantanero, saltapared pantanero",Residente (R); Migratoria de invierno (MI),-99.4973373,19.1531034
Cistothorus palustris palustris,chivirín pantanero,Residente (R); Migratoria de invierno (MI),-97.835,22.2516667
Cistothorus platensis,"chivirín sabanero, saltapared sabanero",Residente (R); Migratoria de invierno (MI),-99.0156555,19.1555466
Cistothorus stellaris,chivirín de ciénega norteño,Residente (R); Migratoria de invierno (MI),-100.0216667,21.8516667
Clangula hyemalis,pato cola larga,Accidental (A),-116.6225123,31.8580587
Claravis pretiosa,tórtola azul,Residente (R),-89.0833,18.5
Clibanornis rubiginosus,"breñero rojizo, musguero castaño",Residente (R),-100.1943898,17.4221123
Coccothraustes abeillei,picogrueso encapuchado,Residente (R),-92.085257,15.086542
Coccothraustes vespertinus,picogrueso norteño,Residente (R),-99.505806,19.122159
Coccyzus americanus,cuclillo pico amarillo,Migratoria de verano (MV); Transitoria (T),-109.928211,23.657133
Coccyzus erythropthalmus,cuclillo pico negro,Transitoria (T),-89.5700288,20.9956834
Coccyzus minor,cuclillo manglero,Residente (R),-94.8912506,16.598907
Cochlearius cochlearius,garza cucharón,Residente (R),-102.7833333,18.0938889
Coereba flaveola,reinita mielera,Residente (R),-91.577934,16.967433
Colaptes auratus,"carpintero de pechera, carpintero de pechera común",Residente (R); Migratoria de invierno (MI),-97.4172547,18.9481856
Colaptes auricularis,carpintero corona gris,Residente (R),-100.1943898,17.4221123
Colaptes chrysoides,"carpintero collarejo, carpintero de pechera del noroeste",Residente (R),-109.544274,28.4573233
Colaptes rubiginosus,"carpintero olivo, carpintero oliváceo",Residente (R),-92.8918767,15.4802515
Colibri thalassinus,colibrí orejas violetas,Residente (R),-99.1195214,20.0073064
Colinus nigrogularis,codorniz yucateca,Residente (R),-89.0320753,18.4323762
Colinus virginianus,codorniz cotuí,Residente (R),-99.8870937,20.1947568
Columba livia,paloma doméstica,Residente (R),-100.1943898,17.4221123
Columbina inca,"tortolita cola larga, tórtola cola larga",Residente (R),-100.1943898,17.4221123
Columbina minuta,"tortolita pecho liso, tórtola pecho liso",Residente (R),-94,17.75
Columbina passerina,"tortolita pico corto, tortolita pico rojo, tórtola coquita",Residente (R),-109.544274,28.4573233
Columbina talpacoti,"tortolita canela, tórtola rojiza",Residente (R),-95.01698,18.35812
Contopus cinereus,"papamoscas tropical, pibí tropical",Residente (R),-89.0320753,18.4323762
Contopus cooperi,"papamoscas boreal, pibí boreal",Migratoria de invierno (MI); Migratoria de verano (MV); Transitoria (T),-93.646946,16.1749128
Contopus pertinax,"papamoscas José María, pibí tengofrío",Residente (R),-100.1943898,17.4221123
Contopus sordidulus,"papamoscas del oeste, pibí occidental",Migratoria de verano (MV); Transitoria (T),-109.544274,28.4573233
Contopus sordidulus sordidulus,pibí occidental,Migratoria de verano (MV); Transitoria (T),-98.67,20.5683333
Contopus virens,"papamoscas del este, pibí oriental",Transitoria (T),-93.09415,16.80234
Coragyps atratus,zopilote común,Residente (R),-95.01698,18.35812
Corthylio calendula,"reyezuelo de rojo, reyezuelo matraquita",Migratoria de invierno (MI),-100.1943898,17.4221123
Corvus brachyrhynchos,"cuervo americano, cuervo norteamericano",Residente (R),-116.623832,31.8729203
Corvus corax,cuervo común,Residente (R),-114.4300045,28.8824166
Corvus cryptoleucus,cuervo llanero,Residente (R); Migratoria de invierno (MI),-102.755127,28.9556669
Corvus imparatus,cuervo tamaulipeco,Residente (R),-97.7766478,23.7870218
Corvus sinaloae,cuervo sinaloense,Residente (R),-105.3478389,20.9613568
Cotinga amabilis,cotinga azuleja,Residente (R),-91.579609,16.970338
Coturnicops noveboracensis,polluela amarilla,Residente (R),-99.51,19.1383333
Crax rubra,hocofaisán,Residente (R),-89.800128,18.241381
Crotophaga ani,garrapatero pico liso,Residente (R),-86.8533333,20.4783333
Crotophaga sulcirostris,garrapatero pijuy,Residente (R),-100.1943898,17.4221123
Crotophaga sulcirostris sulcirostris,garrapatero pijuy,Residente (R),-93.9833333,16.5833333
Crypturellus boucardi,tinamú jamuey,Residente (R),-95.1468534,18.5228338
Crypturellus boucardi boucardi,tinamú jamauey,Residente (R),-91.3086667,16.2011389
Crypturellus cinnamomeus,tinamú canelo,Residente (R),-100.1943898,17.4221123
Crypturellus soui,tinamú menor,Residente (R),-91.577934,16.967433
Cyanerpes cyaneus,"mielero pata roja, mielero patas rojas",Residente (R),-100.1943898,17.4221123
Cyanerpes lucidus,"mielero brillante, mielero patas amarillas",Residente (R),-92.3166667,15.15
Cyanocitta stelleri,"chara copetona, chara crestada",Residente (R),-98.03407,20.211076
Cyanocompsa parellina,colorín azulnegro,Residente (R),-95.01698,18.35812
Cyanocompsa parellina parellina,colorín azul negro,Residente (R),-91.3019444,16.2021944
Cyanocorax beecheii,"chara de Beechy, chara sinaloense",Residente (R),-108.946781,27.043627
Cyanocorax dickeyi,chara pinta,Residente (R),-105.837406,23.480019
Cyanocorax sanblasianus,chara de San Blas,Residente (R),-105.0348185,19.4473107
Cyanocorax sanblasianus sanblasianus,chara de San Blas,Residente (R),-103.965,18.9333333
Cyanocorax yncas,chara verde,Residente (R),-100.1943898,17.4221123
Cyanocorax yucatanicus,chara yucateca,Residente (R),-89.9012736,18.5338613
Cyanocorax yucatanicus yucatanicus,chara yucateca,Residente (R),-88.7233333,20.6683333
Cyanoloxia cyanoides,"picogordo azulnegro, picogordo negro",Residente (R),-91.9898987,17.3781632
Cyanolyca cucullata,chara gorro azul,Residente (R),-97.0159721,19.5298923
Cyanolyca mirabilis,chara garganta blanca,Residente (R),-100.1943898,17.4221123
Cyanolyca nanus,chara enana,Residente (R),-96.640509,17.197801
Cyanolyca pumilo,chara de niebla,Residente (R),-92.573715,16.66719
Cyclarhis gujanensis,"vireón ceja rufa, vireón cejas canela",Residente (R),-89.5540482,21.0237991
Cygnus buccinator,cisne trompetero,Accidental (A),-97.500288,25.8836913
Cygnus columbianus,cisne de tundra,Migratoria de invierno (MI),-115.9249783,31.6752478
Cygnus columbianus columbianus,cisne de tundra,Migratoria de invierno (MI),-116.1608594,32.4345135
Cynanthus auriceps,"esmeralda mexicana, esmeralda occidental",Residente (R),-100.1943898,17.4221123
Cynanthus canivetii,"esmeralda oriental, esmeralda tijereta",Residente (R),-98.947105,22.0814097
Cynanthus forficatus,"esmeralda de Cozumel, esmeralda de Isla Cozumel",Residente (R),-87.01397,20.40559
Cynanthus latirostris,colibrí pico ancho,Residente (R),-109.544274,28.4573233
Cypseloides niger,vencejo negro,Migratoria de verano (MV); Transitoria (T),-96.0906816,19.0674862
Cypseloides storeri,"vencejo cara blanca, vencejo frente blanca",Residente (R),-100.0429373,19.0444481
Cyrtonyx montezumae,codorniz de Moctezuma,Residente (R),-107.1130085,29.2594112
Cyrtonyx montezumae montezumae,codorniz moctezuma,Residente (R),-104.9233333,23.7766667
Cyrtonyx ocellatus,codorniz ocelada,Residente (R),-92.474119,16.545467
Dactylortyx thoracicus,codorniz silbadora,Residente (R),-93.00521,15.8425
Dactylortyx thoracicus thoracicus,codorniz silbadora,Residente (R),-96.9283333,19.545
Dendrocincla anabatina,trepatroncos sepia,Residente (R),-95.1468534,18.5228338
Dendrocincla anabatina anabatina,trepatroncos sepia,Residente (R),-91.3060556,16.2063611
Dendrocincla homochroa,"trepatroncos canelo, trepatroncos rojizo",Residente (R),-90.2985587,17.98888
Dendrocincla homochroa homochroa,trepatroncos rojizo,Residente (R),-91.3080556,16.1906389
Dendrocolaptes picumnus,trepatroncos vientre barrado,Residente (R),-91.5083333,16.4958333
Dendrocolaptes sanctithomae,trepatroncos barrado,Residente (R),-95.1468534,18.5228338
Dendrocygna autumnalis,"pijije ala blanca, pijije alas blancas",Residente (R),-87.084185,20.618312
Dendrocygna bicolor,pijije canelo,Residente (R),-91.9952202,17.7202149
Dendrortyx barbatus,codorniz coluda veracruzana,Residente (R),-98.03407,20.211076
Dendrortyx leucophrys,codorniz coluda centroamericana,Residente (R),-92.085257,15.086542
Dendrortyx macroura,codorniz coluda transvolcánica,Residente (R),-100.1943898,17.4221123
Diglossa baritula,"picaflor canelo, picochueco vientre canela",Residente (R),-100.1943898,17.4221123
Dives dives,tordo cantor,Residente (R),-95.01698,18.35812
Dolichonyx oryzivorus,tordo arrocero,Transitoria (T),-87.6154974,20.0784255
Doricha eliza,"colibrí cola hendida, colibrí tijereta mexicano",Residente (R),-87.7436041,21.5312705
Doricha enicura,"colibrí tijereta, colibrí tijereta guatemalteco",Residente (R),-92.474119,16.545467
Dromococcyx phasianellus,cuclillo faisán,Residente (R),-93.105829,16.8292874
Dryobates arizonae,carpintero de Arizona,Residente (R),-103.5252348,20.6998431
Dryobates fumigatus,carpintero café,Residente (R),-100.1943898,17.4221123
Dryobates nuttallii,carpintero californiano,Residente (R),-115.735,30.97
Dryobates pubescens,carpintero albinegro menor,Residente (R),-116.9049597,32.202071
Dryobates scalaris,carpintero mexicano,Residente (R),-103.389442,20.657566
Dryobates scalaris scalaris,carpintero mexicano,Residente (R),-96.9283333,19.545
Dryobates stricklandi,"carpintero de Strickland, carpintero transvolcánico",Residente (R),-99.7747421,19.1110448
Dryobates villosus,"carpintero albinegro mayor, carpintero velloso-mayor",Residente (R),-104.242,23.3858
Dryocopus lineatus,carpintero lineado,Residente (R),-100.1943898,17.4221123
Dumetella carolinensis,maullador gris,Migratoria de invierno (MI),-89.0320753,18.4323762
Dysithamnus mentalis,hormiguero sencillo,Residente (R),-91.192916,16.248622
Ectopistes migratorius,paloma migratoria,Migratoria de invierno (MI),-97.1,18.85
Egretta caerulea,"garceta azul, garza azul",Residente (R); Migratoria de invierno (MI),-99.4973373,19.1531034
Egretta rufescens,"garceta rojiza, garza rojiza",Residente (R); Migratoria de invierno (MI),-111.2332262,25.7185884
Egretta rufescens rufescens,garceta rojiza,Residente (R); Migratoria de invierno (MI),-110.5833333,25
Egretta thula,"garceta pie-dorado, garza dedos dorados",Residente (R); Migratoria de invierno (MI),-86.9611948,20.7597896
Egretta thula thula,garceta pie-dorado,Residente (R); Migratoria de invierno (MI),-98.5833333,16.3666667
Egretta tricolor,"garceta tricolor, garza tricolor",Residente (R); Migratoria de invierno (MI),-103.5259514,29.1354998
Elaenia flavogaster,"elenia vientre amarillo, mosquero elenia copetón",Residente (R),-95.01698,18.35812
Elaenia frantzii,mosquero elenia de montaña,Residente (R),-93.1270873,17.1756392
Elaenia martinica,"elenia caribeña, mosquero elenia caribeño",Residente (R),-86.96811,20.4879092
Elanoides forficatus,milano tijereta,Migratoria de verano (MV); Transitoria (T),-91.6739065,16.0997026
Elanus leucurus,milano cola blanca,Residente (R),-105.4627488,28.2696381
Elanus leucurus leucurus,milano cola blanca,Residente (R),-95.0833333,18.4166667
Electron carinatum,"momoto pico quilla, momoto pico quillado",Residente (R),-95.4333333,18.3833333
Emberiza pusilla,escribano pigmeo,Accidental (A),-114.4738353,27.5377205
Empidonax affinis,"mosquero pinero, papamoscas pinero",Residente (R),-99.2333333,18.945
Empidonax affinis affinis,mosquero pinero,Residente (R),-99.2833333,19.325
Empidonax albigularis,"mosquero garganta blanca, papamoscas garganta blanca",Residente (R); Migratoria de invierno (MI); Migratoria de verano (MV),-101.665324,19.675089
Empidonax albigularis albigularis,mosquero garganta blanca,Residente (R); Migratoria de invierno (MI); Migratoria de verano (MV),-99.3316667,18.735
Empidonax alnorum,"mosquero ailero, papamoscas ailero",Transitoria (T),-94.4886179,17.9782474
Empidonax difficilis,"mosquero californiano, papamoscas amarillo del pacífico",Residente (R); Migratoria de invierno (MI),-100.1943898,17.4221123
Empidonax flavescens,"mosquero amarillento, papamoscas amarillo sureño",Residente (R),-95.1468534,18.5228338
Empidonax flaviventris,"mosquero vientre amarillo, papamoscas vientre amarillo",Migratoria de invierno (MI),-95.01698,18.35812
Empidonax fulvifrons,"mosquero pecho leonado, papamoscas pecho canela",Residente (R); Migratoria de invierno (MI); Migratoria de verano (MV),-104.242,23.3858
Empidonax hammondii,"mosquero de Hammond, papamoscas de Hammond",Migratoria de invierno (MI),-100.1943898,17.4221123
Empidonax minimus,"mosquero mímimo, papamoscas chico",Migratoria de invierno (MI),-100.1943898,17.4221123
Empidonax oberholseri,"mosquero oscuro, papamoscas matorralero",Migratoria de invierno (MI),-103.518863,19.533456
Empidonax occidentalis,"mosquero barranqueño, papamoscas amarillo barranqueño",Residente (R); Migratoria de invierno (MI); Migratoria de verano (MV),-100.1943898,17.4221123
Empidonax traillii,"mosquero saucero, papamoscas saucero",Migratoria de invierno (MI),-113.5321021,31.3265914
Empidonax traillii traillii,mosquero saucero,Migratoria de invierno (MI),-105.8566667,22.9916667
Empidonax virescens,"mosquero verdoso, papamoscas verdoso",Transitoria (T),-92.7310708,15.7280218
Empidonax wrightii,"mosquero gris, papamoscas bajacolita",Migratoria de invierno (MI),-109.928211,23.657133
Eremophila alpestris,alondra cornuda,Residente (R),-100.581523,25.021968
Eucometis penicillata,tangara cabeza gris,Residente (R),-88.501106,20.574057
Eudocimus albus,ibis blanco,Residente (R); Migratoria de invierno (MI),-97.719033,20.0042942
Eugenes fulgens,colibrí magnífico,Residente (R),-98.815118,18.927638
Eumomota superciliosa,"momoto ceja azul, momoto cejas azules",Residente (R),-89.504138,21.055955
Eumomota superciliosa superciliosa,momoto ceja azul,Residente (R),-88.5366667,20.67
Euphagus carolinus,tordo canadiense,Accidental (A),-117.0537472,32.3312382
Euphagus cyanocephalus,"tordo ojo amarillo, tordo ojos amarillos",Residente (R); Migratoria de invierno (MI),-108.0783333,25.46
Eupherusa cyanophrys,"colibrí miahuatleco, colibrí oaxaqueño",Residente (R),-96.4243948,15.9462477
Eupherusa eximia,colibrí cola rayada,Residente (R),-96.3405674,17.6638143
Eupherusa eximia eximia,colibrí cola rayada,Residente (R),-91.3065833,16.2028889
Eupherusa poliocerca,"colibrí cola blanca, colibrí guerrerense",Residente (R),-100.1943898,17.4221123
Eupherusa ridgwayi,ninfa mexicana,Residente (R),-104.929693,20.782789
Euphonia affinis,eufonia garganta negra,Residente (R),-92.8918767,15.4802515
Euphonia affinis affinis,eufonia garganta negra,Residente (R),-92.42,14.7166667
Euphonia godmani,eufonia garganta negra,Residente (R),-103.7424167,18.6990278
Euphonia gouldi,eufonia olivácea,Residente (R),-95.1468534,18.5228338
Euphonia gouldi gouldi,eufonia olivácea,Residente (R),-95.9333333,17.45
Euphonia hirundinacea,eufonia garganta amarilla,Residente (R),-87.4406214,20.2383617
Euphonia hirundinacea hirundinacea,eufonia garganta amarilla,Residente (R),-95.9333333,17.45
Euphonia minuta,eufonia vientre blanco,Residente (R),-90.7088498,16.6108612
Eupsittula canicularis,perico frente naranja,Residente (R),-100.1943898,17.4221123
Eupsittula nana,perico pecho sucio,Residente (R),-89.0320753,18.4323762
Euptilotis neoxenus,"quetzal orejón, trogón orejón",Residente (R),-108.163273,29.320693
Falco columbarius,halcón esmerejón,Migratoria de invierno (MI),-113.5288954,31.2964638
Falco columbarius columbarius,halcón esmerejón,Migratoria de invierno (MI),-108.0783333,25.46
Falco femoralis,halcón fajado,Residente (R),-98.314091,22.077748
Falco mexicanus,halcón mexicano,Residente (R); Migratoria de invierno (MI),-100.581523,25.021968
Falco peregrinus,halcón peregrino,Residente (R); Migratoria de invierno (MI),-114.4300045,28.8824166
Falco rufigularis,"halcón enano, halcón murcielaguero",Residente (R),-100.1943898,17.4221123
Falco sparverius,cernícalo americano,Residente (R); Migratoria de invierno (MI),-100.1943898,17.4221123
Florisuga mellivora,"colibrí capucha azul, colibrí nuca blanca",Residente (R),-92.8918767,15.4802515
Florisuga mellivora mellivora,colibrí nuca blanca,Residente (R),-93.5233333,16.0866667
Formicarius moniliger,hormiguero cholino maya,Residente (R),-91.577934,16.967433
Formicarius moniliger moniliger,hormiguero-gallito mexicano,Residente (R),-91.3078333,16.2011667
Forpus cyanopygius,"perico catarina, periquito catarino",Residente (R),-108.0783333,25.46
Forpus cyanopygius cyanopygius,catarina de las Islas Marías,Residente (R),-106.2866667,23.7661111
Fregata magnificens,"fragata magnífica, fragata tijereta",Residente (R),-99.7637598,16.748347
Fregata minor,fragata pelágica,Residente (R),-112.4833333,20.1833333
Fulica americana,gallareta americana,Residente (R); Migratoria de invierno (MI),-104.0261225,18.8966598
Fulmarus glacialis,fulmar norteño,Migratoria de invierno (MI); Oceánica (O),-115.2693061,27.5563515
Galbula ruficauda,"jacamar cola canela, jacamar cola rufa",Residente (R),-94.9,18.5166667
Gallinago delicata,"agachona común, agachona norteamericana",Migratoria de invierno (MI),-99.4973373,19.1531034
Gallinula galeata,gallineta frente roja,Residente (R); Migratoria de invierno (MI),-99.4973373,19.1531034
Gavia adamsii,"colimbo de Adams, colimbo pico amarillo",Accidental (A),-114.0586853,27.7032015
Gavia arctica,colimbo ártico,Migratoria de invierno (MI),-110.898915,27.9185669
Gavia immer,"colimbo común, colimbo mayor",Migratoria de invierno (MI),-109.2345923,26.405194
Gavia pacifica,"colimbo del pacífico, colimbo pacífico",Migratoria de invierno (MI),-109.2345923,26.405194
Gavia stellata,colimbo menor,Migratoria de invierno (MI),-116.6287146,31.753972
Gelochelidon nilotica,charrán pico grueso,Residente (R); Migratoria de invierno (MI),-87.7436041,21.5312705
Geococcyx californianus,correcaminos norteño,Residente (R),-103.5738524,25.8777308
Geococcyx velox,correcaminos tropical,Residente (R),-89.6492958,20.2779781
Geothlypis beldingi,"mascarita bajacaliforniana, mascarita peninsular",Residente (R),-109.6914954,23.0485647
Geothlypis flavovelata,mascarita de Altamira,Residente (R),-99.0440333,22.9511222
Geothlypis formosa,chipe patilludo,Migratoria de invierno (MI),-95.01698,18.35812
Geothlypis nelsoni,mascarita matorralera,Residente (R),-98.03407,20.211076
Geothlypis philadelphia,"chipe de pechera, chipe enlutado",Migratoria de invierno (MI); Transitoria (T),-99.1033333,23.0933333
Geothlypis poliocephala,mascarita pico grueso,Residente (R),-89.0320753,18.4323762
Geothlypis speciosa,"mascarita del Lerma, mascarita transvolcánica",Residente (R),-99.4973373,19.1531034
Geothlypis tolmiei,"chipe de Tolmie, chipe lores negros",Migratoria de invierno (MI),-100.1943898,17.4221123
Geothlypis trichas,mascarita común,Residente (R); Migratoria de invierno (MI),-89.0320753,18.4323762
Geotrygon montana,"paloma canela, paloma-perdiz rojiza",Residente (R),-92.8918767,15.4802515
Geotrygon montana montana,paloma-perdiz rojiza,Residente (R),-105.16,21.5283333
Geranoaetus albicaudatus,aguililla cola blanca,Residente (R),-91.9952202,17.7202149
Geranospiza caerulescens,gavilán zancón,Residente (R),-89.9012736,18.5338613
Glaucidium brasilianum,tecolote bajeño,Residente (R),-89.0320753,18.4323762
Glaucidium gnoma,tecolote serrano,Residente (R),-99.5689631,21.1376666
Glaucidium griseiceps,tecolote mesoamericano,Residente (R),-96.3405674,17.6638143
Glaucidium palmarum,tecolote colimense,Residente (R),-96.1680508,15.7369101
Glaucidium sanchezi,tecolote tamaulipeco,Residente (R),-99.2587,23.2363
Glyphorynchus spirurus,trepatroncos pico cuña,Residente (R),-95.1468534,18.5228338
Grallaria guatimalensis,hormiguero cholino escamoso,Residente (R),-92.474119,16.545467
Grallaria guatimalensis guatimalensis,hormiguero-cholino escamoso,Residente (R),-92.0933333,16.9016667
Granatellus sallaei,granatelo yucateco,Residente (R),-88.501106,20.574057
Granatellus sallaei sallaei,granatelo yucateco,Residente (R),-96.4833333,18.2
Granatellus venustus,granatelo mexicano,Residente (R),-96.1492538,15.7766433
Granatellus venustus venustus,granatelo mexicano,Residente (R),-105.78,22.985
Grus americana,grulla blanca,Accidental (A),-98.0566667,25.12
Gygis alba,charrán blanco,Accidental (A); Oceánica (O),-110.9901953,18.7331083
Gymnogyps californianus,cóndor californiano,Residente (R),-115.6101406,30.9651247
Gymnorhinus cyanocephalus,chara piñonera,Residente (R),-115.30667,30.78667
Habia fuscicauda,"piranga hormiguera garganta roja, tangara-hormiguera garganta roja",Residente (R),-89.9012736,18.5338613
Habia rubica,"piranga hormiguera corona roja, tangara-hormiguera corona roja",Residente (R),-100.1943898,17.4221123
Haematopus bachmani,ostrero negro,Residente (R),-114.1785049,27.8032469
Haematopus palliatus,ostrero americano,Residente (R); Migratoria de invierno (MI),-97.7375,23.7916667
Haemorhous cassinii,"pinzón de Cassin, pinzón serrano",Residente (R); Migratoria de invierno (MI),-107.8166667,28.95
Haemorhous mexicanus,pinzón mexicano,Residente (R),-99.0277157,19.2645383
Haemorhous purpureus,"pinzón colorado, pinzón purpúreo",Migratoria de invierno (MI),-116.413064,31.5807747
Haliaeetus leucocephalus,águila cabeza blanca,Residente (R); Migratoria de invierno (MI),-109.721219,29.310244
Hapalocrex flaviventer,polluela pecho amarillo,Residente (R),-94.087888,17.8998085
Haplospiza rustica,semillero pizarra,Residente (R),-93.6666667,17
Harpagus bidentatus,gavilán bidentado,Residente (R),-100.1943898,17.4221123
Harpia harpyja,águila arpía,Residente (R),-90.940876,16.111792
Heliomaster constantii,"colibrí picudo, colibrí picudo occidental",Residente (R),-100.1943898,17.4221123
Heliomaster longirostris,"colibrí pico largo, colibrí picudo coroniazul",Residente (R),-94.8912506,16.598907
Heliornis fulica,pájaro cantil,Residente (R),-92.4204254,18.3080847
Heliothryx barroti,"colibrí hada enmascarada, hada enmascarada",Residente (R),-89.3645047,17.9672613
Helmitheros vermivorum,chipe gusanero,Migratoria de invierno (MI),-93.4158553,16.8591653
Henicorhina leucophrys,"chivirín pecho gris, saltapared pecho gris",Residente (R),-100.1943898,17.4221123
Henicorhina leucosticta,"chivirín pecho blanco, saltapared pecho blanco",Residente (R),-91.577934,16.967433
Herpetotheres cachinnans,halcón guaco,Residente (R),-100.1943898,17.4221123
Herpetotheres cachinnans cachinnans,halcón guaco,Residente (R),-91.0876944,16.0834722
Himantopus mexicanus,"candelero americano, monjita americana",Residente (R); Migratoria de invierno (MI),-97.7375,23.7916667
Hirundo rustica,"golondrina común, golondrina tijereta",Residente (R); Migratoria de invierno (MI); Migratoria de verano (MV); Transitoria (T),-101.0025846,25.4208434
Histrionicus histrionicus,pato arlequín,Accidental (A),-113.5469,28.9793
Hydrobates castro,paíño de Harcourt,Accidental (A); Oceánica (O),-93.8,13.6167
Hydrobates cheimomnestes,paíño de Ainley,Residente (R); Transitoria (T); Oceánica (O),-118.287216,28.905663
Hydrobates furcatus,paíño gris,Accidental (A); Oceánica (O),-118.2666667,29
Hydrobates homochroa,paíño cenizo,Residente (R); Transitoria (T); Oceánica (O),-116.1166667,30.5
Hydrobates leucorhous,paíño de Leach,Residente (R); Transitoria (T); Oceánica (O),-117.98483,29.698
Hydrobates macrodactylus,"paíño de Guadalupe, paíño de Isla Guadalupe",Residente (R); Oceánica (O),-118.26741,29.00015
Hydrobates melania,paíño negro,Residente (R); Oceánica (O),-111.2557983,27.9689337
Hydrobates microsoma,paíño mínimo,Residente (R); Migratoria de invierno (MI); Oceánica (O),-111.2557983,27.9689337
Hydrobates socorroensis,paíño de Townsend,Residente (R); Transitoria (T); Oceánica (O),-118.335,29
Hydrobates tethys,paíño de Galápagos,Transitoria (T); Oceánica (O),-96.234524,15.476918
Hydrocoloeus minutus,gaviota menor,Accidental (A),-97.1484947,25.9482821
Hydroprogne caspia,"charrán caspia, charrán del caspio",Residente (R); Migratoria de invierno (MI),-99.7637598,16.748347
Hydropsalis maculicaudus,"tapacamino cola pinta, tapacaminos sabanero",Residente (R),-94,17.75
Hylocichla mustelina,"zorzal maculado, zorzal moteado",Migratoria de invierno (MI),-95.1468534,18.5228338
Hylomanes momotula,momoto enano,Residente (R),-95.1468534,18.5228338
Hylomanes momotula momotula,momoto enano,Residente (R),-95.2166667,17.8
Hylorchilus navai,"chivirín de Nava, cuevero de Nava",Residente (R),-93.4664655,16.9145437
Hylorchilus sumichrasti,"chivirín de Sumichrast, cuevero de Sumichrast",Residente (R),-96.8801082,18.624561
Ibycter americanus,caracara comecacao,Residente (R),-92.6548877,15.36281
Icteria virens,"buscabreña, chipe grande",Migratoria de invierno (MI); Migratoria de verano (MV),-100.1943898,17.4221123
Icteria virens virens,buscabreña,Migratoria de invierno (MI); Migratoria de verano (MV),-99.235,18.925
Icterus abeillei,"bolsero dorsioscuro, calandria flancos negros",Residente (R); Migratoria de invierno (MI),-101.3599994,20.684424
Icterus auratus,"bolsero yucateco, calandria dorso naranja",Residente (R),-89.5609001,20.8180651
Icterus bullockii,"bolsero calandria, calandria cejas naranjas",Migratoria de invierno (MI); Migratoria de verano (MV),-100.1943898,17.4221123
Icterus chrysater,"bolsero dorso dorado, calandria dorso amarillo",Residente (R),-86.952596,20.765151
Icterus chrysater chrysater,bolsero dorso dorado,Residente (R),-91.0833333,18.2166667
Icterus cucullatus,"bolsero encapuchado, calandria dorso negro menor",Residente (R); Migratoria de invierno (MI); Migratoria de verano (MV),-89.0320753,18.4323762
Icterus cucullatus cucullatus,bolsero encapuchado,Residente (R); Migratoria de invierno (MI); Migratoria de verano (MV),-99.5,17.55
Icterus galbula,"bolsero de Baltimore, calandria de Baltimore",Migratoria de invierno (MI),-100.1943898,17.4221123
Icterus graduacauda,"bolsero cabeza negra, calandria capucha negra",Residente (R),-100.1943898,17.4221123
Icterus gularis,"bolsero de Altamira, calandria dorso negro mayor",Residente (R),-95.01698,18.35812
Icterus maculialatus,"bolsero guatemalteco, calandria guatemalteca",Residente (R),-93.1166666,16.7516666
Icterus mesomelas,"bolsero cola amarilla, calandria cola amarilla",Residente (R),-86.8497562,20.9745676
Icterus mesomelas mesomelas,bolsero cola amarilla,Residente (R),-91.0833333,18.2166667
Icterus parisorum,"bolsero tunero, calandria tunera",Residente (R); Migratoria de invierno (MI); Migratoria de verano (MV),-98.815118,18.927638
Icterus pectoralis,"bolsero pecho manchado, calandria pecho moteado",Residente (R),-100.1943898,17.4221123
Icterus pectoralis pectoralis,bolsero pecho manchado,Residente (R),-102.07,17.985
Icterus prosthemelas,"bolsero capucha negra, calandria caperuza negra",Residente (R),-95.01698,18.35812
Icterus pustulatus,"bolsero dorso rayado, calandria dorso rayado",Residente (R),-100.1943898,17.4221123
Icterus pustulatus pustulatus,bolsero dorso rayado,Residente (R),-99.5,17.55
Icterus spurius,"bolsero castaño, calandria castaña",Migratoria de invierno (MI); Migratoria de verano (MV),-95.01698,18.35812
Icterus spurius spurius,bolsero castaño,Migratoria de invierno (MI); Migratoria de verano (MV),-91.0833333,18.2166667
Icterus wagleri,"bolsero de Wagler, calandria de Wagler",Residente (R),-103.2419,20.29925
Icterus wagleri wagleri,bolsero de Wagler,Residente (R),-91.3088056,16.1921111
Ictinia mississippiensis,milano de Mississippi,Transitoria (T),-95.966681,18.849211
Ictinia plumbea,milano plomizo,Migratoria de verano (MV),-87.7233333,19.975
Ixobrychus exilis,avetoro menor,Residente (R); Migratoria de invierno (MI),-114.8360043,31.9750738
Ixobrychus exilis exilis,avetoro mínimo,Residente (R); Migratoria de invierno (MI),-97.965,22.465
Ixoreus naevius,"mirlo cinchado, mirlo pecho cinchado",Migratoria de invierno (MI),-114.4738353,27.5377205
Jabiru mycteria,cigüeña jabirú,Residente (R),-92.4204254,18.3080847
Jacana spinosa,jacana norteña,Residente (R),-91.9952202,17.7202149
Jacana spinosa spinosa,jacana norteña,Residente (R),-100.985,18.4183333
Junco bairdi,junco sudcaliforniano,Residente (R),-109.9762344,23.548595
Junco hyemalis,"junco ojo oscuro, junco ojos negros",Residente (R); Migratoria de invierno (MI),-117.0033333,32.5333333
Junco insularis,"junco de Isla Guadalupe, junco ojo oscuro",Residente (R),-118.3306099,29.10919
Junco phaeonotus,junco ojos de lumbre,Residente (R),-98.03407,20.211076
Junco phaeonotus phaeonotus,junco ojo de lumbre,Residente (R),-99.2333333,18.945
Lampornis amethystinus,colibrí garganta amatista,Residente (R),-100.1943898,17.4221123
Lampornis clemenciae,colibrí garganta azul,Residente (R),-99.1195214,20.0073064
Lampornis viridipallens,colibrí garganta verde,Residente (R),-91.7222222,16.1347222
Lampornis viridipallens viridipallens,colibrí garganta verde,Residente (R),-92.8333333,15.6166667
Lamprolaima rhami,"colibrí ala castaña, colibrí multicolor",Residente (R),-100.1943898,17.4221123
Lanio aurantius,"tangara capucha negra, tangara garganta negra",Residente (R),-94.9,18.5166667
Laniocera rufescens,"llorón fioié, plañidera jaspeada",Residente (R),-90.9410997,16.1124493
Laniocera rufescens rufescens,plañidera jaspeada,Residente (R),-93.3516667,16.8866667
Lanius ludovicianus,"alcaudón verdugo, verdugo americano",Residente (R); Migratoria de invierno (MI),-114.4300045,28.8824166
Larus argentatus,gaviota plateada,Migratoria de invierno (MI),-87.0266705,20.6739559
Larus californicus,gaviota californiana,Migratoria de invierno (MI),-113.5288954,31.2964638
Larus crassirostris,gaviota cola negra,Accidental (A),-114.5032024,31.6872762
Larus delawarensis,gaviota pico anillado,Migratoria de invierno (MI),-87.0266705,20.6739559
Larus dominicanus,"gaviota dominicana, gaviota meridional",Accidental (A),-89.8450402,21.2501092
Larus fuscus,gaviota sombría,Migratoria de invierno (MI),-89.949955,21.1992387
Larus glaucescens,"gaviota ala glauca, gaviota alas blancas",Migratoria de invierno (MI),-112.092551,24.7783575
Larus glaucoides,gaviota de Groenlandia,Migratoria de invierno (MI),-114.8270956,31.033671
Larus glaucoides thayeri,gaviota de Thayer,Migratoria de invierno (MI),-116.1166667,30.5
Larus heermanni,"gaviota ploma, gaviota plomiza",Residente (R),-113.5288954,31.2964638
Larus hyperboreus,gaviota blanca,Migratoria de invierno (MI),-97.1484947,25.9482821
Larus livens,"gaviota bajacaliforniana, gaviota pata amarilla",Residente (R),-113.5288954,31.2964638
Larus marinus,gaviota mayor,Accidental (A),-88.105545,21.6081209
Larus occidentalis,gaviota occidental,Residente (R); Migratoria de invierno (MI),-117.599,32.5833
Larus occidentalis occidentalis,gaviota occidental,Residente (R); Migratoria de invierno (MI),-117.25,32.4333333
Laterallus exilis,polluela pecho gris,Residente (R),-94.4886179,17.9782474
Laterallus jamaicensis,polluela negra,Residente (R),-114.719754,31.926729
Laterallus ruber,"polluela canela, polluela rojiza",Residente (R),-87.5732153,20.0691949
Legatus leucophaius,"papamoscas pirata, papamoscas rayado chico",Migratoria de verano (MV),-86.9636536,20.7586019
Leiothlypis celata,"chipe corona naranja, chipe oliváceo",Residente (R); Migratoria de invierno (MI),-114.4300045,28.8824166
Leiothlypis celata celata,chipe corona naranja,Residente (R); Migratoria de invierno (MI),-95.45,18.4666667
Leiothlypis crissalis,"chipe crisal, chipe de colima",Migratoria de invierno (MI); Migratoria de verano (MV),-103.518863,19.533456
Leiothlypis luciae,"chipe rabadilla castaña, chipe rabadilla rufa",Migratoria de invierno (MI); Migratoria de verano (MV),-109.2345923,26.405194
Leiothlypis peregrina,chipe peregrino,Migratoria de invierno (MI),-100.1943898,17.4221123
Leiothlypis ruficapilla,"chipe cabeza gris, chipe de coronilla",Migratoria de invierno (MI),-103.3560483,20.6753883
Leiothlypis ruficapilla ruficapilla,chipe de coronilla,Migratoria de invierno (MI),-101.6833333,19.6
Leiothlypis virginiae,chipe de Virginia,Migratoria de invierno (MI),-103.2862532,20.731047
Lepidocolaptes affinis,trepatroncos corona punteada,Residente (R),-98.03407,20.211076
Lepidocolaptes leucogaster,"trepatroncos escarchado, trepatroncos mexicano",Residente (R),-100.1943898,17.4221123
Lepidocolaptes leucogaster leucogaster,trepatroncos escarchado,Residente (R),-100.1033333,21.3533333
Lepidocolaptes souleyetii,trepatroncos corona rayada,Residente (R),-100.1943898,17.4221123
Leptodon cayanensis,gavilán cabeza gris,Residente (R),-95.1468534,18.5228338
Leptopogon amaurocephalus,"mosquerito gorra café, mosquero gorra parda",Residente (R),-95.02,17.02
Leptotila cassinii,paloma pecho gris,Residente (R),-91.579609,16.970338
Leptotila jamaicensis,paloma caribeña,Residente (R),-89.800128,18.241381
Leptotila plumbeiceps,"paloma cabeza gris, paloma cabeza ploma",Residente (R),-95.1468534,18.5228338
Leptotila verreauxi,paloma arroyera,Residente (R),-100.1943898,17.4221123
Leucophaeus atricilla,gaviota reidora,Residente (R); Migratoria de invierno (MI),-88.1649882,21.5992128
Leucophaeus modestus,gaviota gris,Accidental (A),-90.6879376,19.6361845
Leucophaeus pipixcan,gaviota de Franklin,Transitoria (T),-93.3392684,15.6006862
Limnodromus griseus,costurero pico corto,Migratoria de invierno (MI),-109.2345923,26.405194
Limnodromus griseus caurinus,costurero pico corto,Migratoria de invierno (MI),-115.9666667,30.4533333
Limnodromus griseus griseus,costurero pico corto,Migratoria de invierno (MI),-104.5,23.4666667
Limnodromus scolopaceus,costurero pico largo,Migratoria de invierno (MI),-99.4973373,19.1531034
Limnothlypis swainsonii,chipe corona café,Migratoria de invierno (MI),-89.0833,18.5
Limosa fedoa,picopando canelo,Migratoria de invierno (MI),-88.1649882,21.5992128
Limosa haemastica,"picopando del este, picopando ornamentado",Transitoria (T),-90.29965,20.98952
Limosa lapponica,picopando cola barrada,Accidental (A),-86.8339678,20.9597602
Lipaugus unirufus,pía guardabosques,Residente (R),-90.837595,16.250392
Lipaugus unirufus unirufus,pía guardabosques,Residente (R),-95.0333333,17.1383333
Lonchura malacca,capuchino tricolor,Residente (R),-91.6705227,17.9044853
Lonchura punctulata,capuchino pecho escamoso,Residente (R),-87.7075205,21.4439895
Lophodytes cucullatus,mergo cresta blanca,Migratoria de invierno (MI),-105.5565554,28.1854548
Lophornis brachylophus,"coqueta cresta corta, coqueta de Atoyac",Residente (R),-100.1943898,17.4221123
Lophornis helenae,coqueta cresta negra,Residente (R),-92.1459459,15.092923
Lophostrix cristata,"búho cuerno blanco, búho cuernos blancos",Residente (R),-92.850105,15.592826
Loxia curvirostra,picotuerto rojo,Residente (R),-99.36667,19.28333
Lurocalis semitorquatus,chotacabras cola corta,Residente (R),-90.8619547,16.2562905
Malacoptila panamensis,buco barbón,Residente (R),-90.8580746,16.2547849
Manacus candei,"manaquín cuello blanco, saltarín cuello blanco",Residente (R),-96.3405674,17.6638143
Mareca americana,pato chalcuán,Migratoria de invierno (MI),-99.4973373,19.1531034
Mareca penelope,pato silbón,Migratoria de invierno (MI),-114.0549555,27.9652876
Mareca strepera,pato friso,Migratoria de invierno (MI),-99.4973373,19.1531034
Megaceryle alcyon,martín pescador norteño,Migratoria de invierno (MI),-109.5463004,28.4557269
Megaceryle torquata,martín pescador de collar,Residente (R),-89.0320753,18.4323762
Megarynchus pitangua,Luis pico grueso,Residente (R),-100.1943898,17.4221123
Megascops asio,"tecolote del este, tecolote oriental",Residente (R),-100.2833333,25.5333333
Megascops barbarus,tecolote barbudo,Residente (R),-92.6383306,16.7366667
Megascops cooperi,tecolote de Cooper,Residente (R),-92.8918767,15.4802515
Megascops guatemalae,tecolote sapo,Residente (R),-87.600273,21.307155
Megascops kennicottii,"tecolote del oeste, tecolote occidental",Residente (R),-99.1195214,20.0073064
Megascops seductus,tecolote del Balsas,Residente (R),-99.234974,18.704864
Megascops trichopsis,tecolote rítmico,Residente (R),-96.59,16.2016667
Megascops trichopsis trichopsis,tecolote rítmico,Residente (R),-103.655,19.5766667
Melanerpes aurifrons,carpintero cheje,Residente (R),-95.01698,18.35812
Melanerpes chrysogenys,carpintero enmascarado,Residente (R),-100.1943898,17.4221123
Melanerpes chrysogenys chrysogenys,carpintero enmascarado,Residente (R),-105.8383333,23.3083333
Melanerpes formicivorus,carpintero bellotero,Residente (R),-100.1943898,17.4221123
Melanerpes hypopolius,"carpintero del balsas, carpintero pecho gris",Residente (R),-97.3947783,18.4823716
Melanerpes lewis,carpintero de Lewis,Migratoria de invierno (MI),-115.9085083,32.0453328
Melanerpes pucherani,carpintero cara negra,Residente (R),-96.3405674,17.6638143
Melanerpes pygmaeus,carpintero yucateco,Residente (R),-89.5540482,21.0237991
Melanerpes pygmaeus pygmaeus,carpintero yucateco,Residente (R),-86.935,20.4333333
Melanerpes uropygialis,carpintero del desierto,Residente (R),-111.2332262,25.7185884
Melanerpes uropygialis uropygialis,carpintero del desierto,Residente (R),-107.0166667,24.4183333
Melanitta americana,"negreta negra, negreta pico amarillo",Migratoria de invierno (MI),-115.9754455,30.4842857
Melanitta deglandi,negreta alas blancas americana,Migratoria de invierno (MI),-113.5574341,28.9468706
Melanitta perspicillata,negreta nuca blanca,Migratoria de invierno (MI),-111.2557983,27.9689337
Melanoptila glabrirostris,maullador negro,Residente (R),-87.3098356,20.3988183
Melanotis caerulescens,mulato azul,Residente (R),-99.249065,19.009524
Melanotis hypoleucus,mulato pecho blanco,Residente (R),-92.1316667,16.25
Meleagris gallopavo,guajolote norteño,Residente (R),-104.6414555,23.25745
Meleagris gallopavo gallopavo,guajolote norteño,Residente (R),-101.12,27.8666667
Meleagris ocellata,guajolote ocelado,Residente (R),-89.7395699,21.0757484
Melospiza georgiana,gorrión pantanero,Migratoria de invierno (MI),-109.5463004,28.4557269
Melospiza georgiana georgiana,gorrión pantanero,Migratoria de invierno (MI),-109.3333333,29.8666667
Melospiza lincolnii,gorrión de Lincoln,Migratoria de invierno (MI),-114.73141,32.715386
Melospiza lincolnii lincolnii,gorrión de Lincoln,Migratoria de invierno (MI),-99.5,17.55
Melospiza melodia,gorrión cantor,Residente (R); Migratoria de invierno (MI),-99.4973373,19.1531034
Melozone aberti,"rascador enmascarado, toquí enmascarado",Residente (R),-115.1821494,32.1804512
Melozone albicollis,"rascador oaxaqueño, toquí oaxaqueño",Residente (R),-96.510774,17.0098918
Melozone albicollis albicollis,toquí oaxaqueño,Residente (R),-97.3783333,17.5633333
Melozone biarcuata,rascador patilludo,Residente (R),-92.893954,15.442236
Melozone crissalis,"rascador californiano, toquí californiano",Residente (R),-109.928211,23.657133
Melozone fusca,"rascador viejita, toquí pardo",Residente (R),-103.4526797,19.5901715
Melozone kieneri,"rascador nuca canela, rascador nuca rufa",Residente (R),-99.1014007,18.9658571
Melozone kieneri kieneri,rascador nuca rufa,Residente (R),-103.3333333,20.855
Melozone leucotis,"rascador oreja blanca, rascador orejas blancas",Residente (R),-92.14638,15.08608
Mergus merganser,mergo mayor,Migratoria de invierno (MI),-109.2345923,26.405194
Mergus serrator,mergo copetón,Migratoria de invierno (MI),-109.2345923,26.405194
Micrastur ruficollis,halcón selvático barrado,Residente (R),-94.9,18.5166667
Micrastur semitorquatus,halcón selvático de collar,Residente (R),-100.1943898,17.4221123
Micrathene whitneyi,tecolote enano,Residente (R); Migratoria de invierno (MI); Migratoria de verano (MV),-110.124315,23.441545
Microcerculus philomela,"chivirín ruiseñor, saltapared ruiseñor",Residente (R),-91.577934,16.967433
Microrhopias quixensis,"hormiguero ala punteada, hormiguero alas punteadas",Residente (R),-90.837595,16.250392
Mimus gilvus,centzontle tropical,Residente (R),-87.2342466,20.513145
Mimus graysoni,"centzontle de Isla Socorro, centzontle de Socorro",Residente (R),-110.95642,18.77768
Mimus polyglottos,centzontle norteño,Residente (R); Migratoria de invierno (MI),-103.5738524,25.8777308
Mimus polyglottos polyglottos,centzontle norteño,Residente (R); Migratoria de invierno (MI),-99.5,17.55
Mionectes oleagineus,"mosquerito ocre, mosquero ocrillo",Residente (R),-88.883333,18.383333
Mitrephanes phaeocercus,"mosquero copetón, papamoscas copetón",Residente (R),-104.0516942,20.6532106
Mitrephanes phaeocercus phaeocercus,mosquero copetón,Residente (R),-100.8316667,19.7033333
Mniotilta varia,chipe trepador,Migratoria de invierno (MI),-100.1943898,17.4221123
Molothrus aeneus,tordo ojos rojos,Residente (R); Migratoria de verano (MV),-100.1943898,17.4221123
Molothrus aeneus aeneus,tordo ojo rojo,Residente (R); Migratoria de verano (MV),-91.3125833,16.1994444
Molothrus ater,tordo cabeza café,Residente (R); Migratoria de invierno (MI),-100.581523,25.021968
Molothrus bonariensis,"tordo común, tordo sudamericano",Residente (R),-87.3779637,21.5233397
Molothrus oryzivorus,tordo gigante,Residente (R),-93.3392684,15.6006862
Momotus coeruliceps,momoto corona azul,Residente (R),-98.947105,22.0814097
Momotus lessonii,momoto corona negra,Residente (R),-95.01698,18.35812
Momotus mexicanus,"momoto corona café, momoto corona canela",Residente (R),-100.1943898,17.4221123
Momotus mexicanus mexicanus,momoto corona café,Residente (R),-99.5,17.55
Morococcyx erythropygus,cuclillo terrestre,Residente (R),-100.1943898,17.4221123
Morococcyx erythropygus erythropygus,cuclillo terrestre,Residente (R),-93.9166667,16.5666667
Morphnus guianensis,águila crestada,Residente (R),-90.9811735,16.8607339
Morus bassanus,bobo norteño,Migratoria de invierno (MI),-97.1484947,25.9482821
Motacilla alba,lavandera blanca,Accidental (A),-114.0549555,27.9652876
Motacilla tschutschensis,lavandera amarilla,Accidental (A),-115.9457588,30.4094494
Myadestes occidentalis,clarín jilguero,Residente (R),-100.1943898,17.4221123
Myadestes townsendi,clarín norteño,Residente (R); Migratoria de invierno (MI),-108.163273,29.320693
Myadestes townsendi townsendi,clarín norteño,Residente (R); Migratoria de invierno (MI),-115.91,32.0466667
Myadestes unicolor,clarín unicolor,Residente (R),-96.004919,17.247789
Myadestes unicolor unicolor,clarín unicolor,Residente (R),-98.7466667,20.805
Mycteria americana,cigüeña americana,Residente (R); Migratoria de invierno (MI),-89.0320753,18.4323762
Myiarchus cinerascens,papamoscas cenizo,Residente (R); Migratoria de invierno (MI); Migratoria de verano (MV),-109.928211,23.657133
Myiarchus crinitus,papamoscas viajero,Migratoria de invierno (MI),-89.9012736,18.5338613
Myiarchus nuttingi,"papamoscas de Nutting, papamoscas huí",Residente (R),-108.0783333,25.46
Myiarchus tuberculifer,papamoscas triste,Residente (R),-100.1943898,17.4221123
Myiarchus tyrannulus,"papamoscas gritón, papamoscas tirano",Residente (R); Migratoria de verano (MV),-89.0320753,18.4323762
Myiarchus yucatanensis,papamoscas yucateco,Residente (R),-90.1960376,20.8158667
Myiarchus yucatanensis yucatanensis,papamoscas yucateco,Residente (R),-91.0833333,18.2166667
Myiobius sulphureipygius,"mosquerito rabadilla amarilla, mosquero rabadilla amarilla",Residente (R),-89.3645047,17.9672613
Myioborus miniatus,"chipe de montaña, pavito alas negras",Residente (R),-100.1943898,17.4221123
Myioborus miniatus miniatus,chipe de montaña,Residente (R),-105.8383333,23.3083333
Myioborus pictus,"chipe ala blanca, pavito alas blancas",Residente (R),-100.6194483,22.0415583
Myioborus pictus pictus,chipe ala blanca,Residente (R),-97.3333333,18.7
Myiodynastes luteiventris,"papamoscas atigrado, papamoscas rayado común",Migratoria de verano (MV),-100.1943898,17.4221123
Myiodynastes maculatus,"papamoscas rayado, papamoscas rayado cheje",Migratoria de verano (MV),-95.03569,18.52424
Myiopagis viridicata,"elenia verdosa, mosquerito verdoso",Residente (R),-100.1943898,17.4221123
Myiopsitta monachus,perico monje argentino,Residente (R),-98.8679914,19.4905512
Myiozetetes similis,"Luis gregario, luisito común",Residente (R),-100.1943898,17.4221123
Myrmotherula schisticolor,"hormiguero apizarrado, hormiguero plomizo",Residente (R),-92,15.9533333
Myrmotherula schisticolor schisticolor,hormiguero apizarrado,Residente (R),-91.4366667,16.8116667
Nannopterum auritum,"cormorán orejudo, cormorán orejón",Residente (R); Migratoria de invierno (MI),-114.73141,32.715386
Nannopterum brasilianum,"cormorán neotropical, cormorán oliváceo",Residente (R),-88.3018971,18.493776
Nomonyx dominicus,pato enmascarado,Residente (R),-92.4204254,18.3080847
Notharchus hyperrhynchus,buco de collar,Residente (R),-94.3,17.15
Nucifraga columbiana,cascanueces americano,Residente (R),-115.9085083,32.0453328
Numenius americanus,zarapito pico largo,Migratoria de invierno (MI),-109.568875,23.597522
Numenius borealis,zarapito boreal,Transitoria (T),-107.9733333,30.3566667
Numenius phaeopus,zarapito trinador,Migratoria de invierno (MI),-99.7637598,16.748347
Nyctanassa violacea,"garza nocturna corona clara, pedrete corona clara",Residente (R); Migratoria de invierno (MI),-91.9952202,17.7202149
Nyctanassa violacea violacea,pedrete corona clara,Residente (R); Migratoria de invierno (MI),-99.5833333,16.75
Nyctibius grandis,"bienparado mayor, pájaro estaca mayor",Residente (R),-90.9205556,16.1380556
Nyctibius jamaicensis,"pájaro estaca, pájaro estaca norteño",Residente (R),-106.4418631,23.2995931
Nycticorax nycticorax,"garza nocturna corona negra, pedrete corona negra",Residente (R); Migratoria de invierno (MI),-99.4973373,19.1531034
Nyctidromus albicollis,chotacabras pauraque,Residente (R),-100.416938,25.6477067
Nyctidromus albicollis albicollis,chotacabras pauraque,Residente (R),-92.65,15.35
Nyctiphrynus mcleodii,"tapacamino prío, tapacaminos prío",Residente (R),-99.5,17.55
Nyctiphrynus yucatanicus,"tapacamino yucateco, tapacaminos huil",Residente (R),-87.7313232,20.4823411
Oceanites oceanicus,paíño de Wilson,Accidental (A); Oceánica (O),-117.22648,32.366821
Odontophorus guttatus,codorniz bolonchaco,Residente (R),-91.579609,16.970338
Oenanthe oenanthe,collalba norteña,Accidental (A),-114.0078735,28.2961245
Oncostoma cinereigulare,"mosquerito pico curvo, mosquero pico curvo",Residente (R),-89.9012736,18.5338613
Onychoprion anaethetus,charrán embridado,Migratoria de invierno (MI); Migratoria de verano (MV),-86.7792892,21.0619546
Onychoprion fuscatus,"charrán albinegro, charrán sombrío",Residente (R); Migratoria de invierno (MI); Oceánica (O),-100.2667,16.85
Onychorhynchus coronatus,mosquero real,Residente (R),-91.9805556,17.5091667
Oporornis agilis,chipe de Connecticut,Accidental (A),-114.0504456,27.9666658
Oreophasis derbianus,"pavón, pavón cornudo",Residente (R),-92.8922222,15.4244444
Oreortyx pictus,codorniz de montaña,Residente (R),-115.8542121,32.0432978
Oreortyx pictus pictus,codorniz de montaña,Residente (R),-115.45,30.9166667
Oreoscoptes montanus,"cuicacoche chato, cuitlacoche de chías",Migratoria de invierno (MI),-100.1027491,25.9070744
Oreothlypis superciliosa,"chipe cejas blancas, parula ceja blanca",Residente (R),-100.1943898,17.4221123
Oriturus superciliosus,"zacatonero rayado, zacatonero serrano",Residente (R),-99.4973373,19.1531034
Ornithion semiflavum,"mosquerito enano, mosquero ceja blanca",Residente (R),-95.1468534,18.5228338
Ortalis leucogastra,chachalaca vientre blanco,Residente (R),-92.8918767,15.4802515
Ortalis poliocephala,chachalaca pálida,Residente (R),-100.1943898,17.4221123
Ortalis vetula,"chachalaca oriental, chachalaca vetula",Residente (R),-95.01698,18.35812
Ortalis wagleri,chachalaca vientre castaño,Residente (R),-106.32161,23.5030583
Oxyura jamaicensis,pato tepalcate,Residente (R); Migratoria de invierno (MI),-99.4973373,19.1531034
Pachyramphus aglaiae,"cabezón degollado, mosquero-cabezón degollado",Residente (R),-100.1943898,17.4221123
Pachyramphus aglaiae aglaiae,mosquero-cabezón degollado,Residente (R),-97.3333333,18.7
Pachyramphus cinnamomeus,"cabezón canelo, mosquero-cabezón canelo",Residente (R),-91.192916,16.248622
Pachyramphus major,"cabezón mexicano, mosquero-cabezón mexicano",Residente (R),-87.2509874,20.9460456
Pachyramphus major major,mosquero-cabezón mexicano,Residente (R),-91.3070833,16.189
Pachyramphus polychopterus,cabezón alas blancas,Accidental (A),-90.967091,16.899682
Pachysylvia decurtata,"verdillo gris, vireocillo cabeza gris",Residente (R),-90.9471962,16.1234976
Pampa curvipennis,"fandanguero cola cuña, fandanguero mexicano",Residente (R),-98.9742054,21.7340278
Pampa curvipennis excellens,"fandanguero cola larga, fandanguero tuxtleño",Residente (R),-95.1468534,18.5228338
Pampa rufa,"fandanguero canelo, fandanguero rojizo",Residente (R),-92.085257,15.086542
Pandion haliaetus,"gavilán pescador, águila pescadora",Residente (R); Migratoria de invierno (MI),-100.1943898,17.4221123
Panyptila cayennensis,vencejo tijereta menor,Residente (R),-96.2238889,18.0458333
Panyptila sanctihieronymi,vencejo tijereta mayor,Residente (R),-91.6739065,16.0997026
Parabuteo unicinctus,aguililla rojinegra,Residente (R),-109.544274,28.4573233
Paraclaravis mondetoura,tórtola pecho morado,Residente (R),-92.6680556,16.7561111
Pardirallus maculatus,rascón pinto,Residente (R),-90.3434,20.52984
Parkesia motacilla,chipe arroyero,Migratoria de invierno (MI),-98.03407,20.211076
Parkesia noveboracensis,chipe charquero,Migratoria de invierno (MI),-99.4973373,19.1531034
Passer domesticus,"gorrión casero, gorrión doméstico",Residente (R),-100.1943898,17.4221123
Passer domesticus domesticus,gorrión casero,Residente (R),-115.2716667,32.545
Passerculus sandwichensis,gorrión sabanero,Residente (R); Migratoria de invierno (MI),-100.581523,25.021968
Passerculus sandwichensis sandwichensis,gorrión sabanero,Residente (R); Migratoria de invierno (MI),-92.1166667,16.2133333
Passerella iliaca,gorrión rascador,Migratoria de invierno (MI),-115.9085083,32.0453328
Passerina amoena,"colorín lázuli, colorín pecho canela",Migratoria de invierno (MI); Migratoria de verano (MV),-109.928211,23.657133
Passerina caerulea,picogordo azul,Residente (R); Migratoria de invierno (MI); Migratoria de verano (MV),-101.3305683,20.7539483
Passerina ciris,colorín sietecolores,Migratoria de invierno (MI); Migratoria de verano (MV),-89.0320753,18.4323762
Passerina cyanea,colorín azul,Migratoria de invierno (MI),-100.1943898,17.4221123
Passerina leclancherii,colorín pecho naranja,Residente (R),-100.1943898,17.4221123
Passerina rositae,colorín azulrosa,Residente (R),-94.8709,16.5835
Passerina versicolor,colorín morado,Residente (R); Migratoria de verano (MV),-100.1943898,17.4221123
Patagioenas cayennensis,paloma colorada,Residente (R),-92.0160398,17.4997138
Patagioenas fasciata,"paloma de collar, paloma encinera",Residente (R); Migratoria de invierno (MI),-109.928211,23.657133
Patagioenas flavirostris,paloma morada,Residente (R),-100.1943898,17.4221123
Patagioenas flavirostris flavirostris,paloma morada,Residente (R),-108.6216667,26.415
Patagioenas leucocephala,paloma corona blanca,Residente (R),-87.01397,20.40559
Patagioenas nigrirostris,paloma triste,Residente (R),-90.9471962,16.1234976
Patagioenas speciosa,paloma escamosa,Residente (R),-89.0833,18.5
Pelecanus erythrorhynchos,"pelícano blanco, pelícano blanco americano",Migratoria de invierno (MI),-101.2773033,20.9069083
Pelecanus occidentalis,"pelícano café, pelícano pardo",Residente (R); Migratoria de invierno (MI),-99.7637598,16.748347
Penelope purpurascens,pava cojolita,Residente (R),-95.1468534,18.5228338
Penelope purpurascens purpurascens,pava cojolita,Residente (R),-91.3063333,16.2067778
Penelopina nigra,pajuil,Residente (R),-92.085257,15.086542
Petrochelidon fulva,golondrina pueblera,Residente (R); Migratoria de verano (MV),-89.6409436,20.8747409
Petrochelidon pyrrhonota,golondrina risquera,Migratoria de verano (MV); Transitoria (T),-109.5463004,28.4557269
Peucaea botterii,zacatonero de Botteri,Residente (R),-100.581523,25.021968
Peucaea carpalis,"zacatonero ala rufa, zacatonero hombros canela",Residente (R),-109.5463004,28.4557269
Peucaea cassinii,zacatonero de Cassin,Residente (R); Migratoria de invierno (MI),-100.581523,25.021968
Peucaea humeralis,zacatonero pecho negro,Residente (R),-99.1014007,18.9658571
Peucaea mystacalis,zacatonero embridado,Residente (R),-96.234758,16.701318
Peucaea ruficauda,zacatonero corona rayada,Residente (R),-105.4724853,20.3953046
Peucaea sumichrasti,zacatonero istmeño,Residente (R),-93.646946,16.1749128
Peucedramus taeniatus,ocotero enmascarado,Residente (R),-97.4172547,18.9481856
Peucedramus taeniatus taeniatus,ocotero enmascarado,Residente (R),-97.1,16.2266667
Phaeochroa cuvierii,"chupaflor pechiescamado, colibrí pecho escamoso",Residente (R),-90.888386,16.821504
Phaeoptila sordida,"colibrí opaco, colibrí oscuro",Residente (R),-96.510774,17.0098918
Phaethon aethereus,rabijunco pico rojo,Residente (R); Oceánica (O),-109.4380975,23.2440669
Phaethon lepturus,rabijunco cola blanca,Accidental (A); Oceánica (O),-111.298611,25.937222
Phaethon rubricauda,rabijunco cola roja,Accidental (A); Oceánica (O),-110.54277,20.4795
Phaethornis longirostris,"colibrí ermitaño mesoamericano, colibrí ermitaño pico largo, ermitaño mexicano",Residente (R),-95.01698,18.35812
Phaethornis mexicanus,colibrí ermitaño mexicano,Residente (R),-100.1943898,17.4221123
Phaethornis striigularis,"colibrí ermitaño enano, ermitaño enano",Residente (R),-95.01698,18.35812
Phainopepla nitens,capulinero negro,Residente (R); Migratoria de invierno (MI),-109.928211,23.657133
Phainopepla nitens nitens,capulinero negro,Residente (R); Migratoria de invierno (MI),-100.6316667,23.7933333
Phalaenoptilus nuttallii,"tapacamino tevíi, tapacaminos pandeagua",Residente (R),-110.124315,23.441545
Phalaropus fulicarius,falaropo pico grueso,Migratoria de invierno (MI),-110.8557763,25.2427987
Phalaropus lobatus,falaropo cuello rojo,Migratoria de invierno (MI),-110.5421118,24.6919099
Phalaropus tricolor,falaropo pico largo,Migratoria de invierno (MI); Transitoria (T),-101.6946683,21.1765733
Pharomachrus mocinno,quetzal mesoamericano,Residente (R),-94.48,16.5066667
Phasianus colchicus,faisán de collar,Residente (R),-114.8566103,32.4314838
Pheucticus chrysopeplus,picogordo amarillo,Residente (R),-99.1014007,18.9658571
Pheucticus ludovicianus,"picogordo degollado, picogordo pecho rosa",Migratoria de invierno (MI); Transitoria (T),-100.1943898,17.4221123
Pheucticus melanocephalus,picogordo tigrillo,Residente (R); Migratoria de invierno (MI); Migratoria de verano (MV),-100.1943898,17.4221123
Pheugopedius felix,"chivirín feliz, saltapared feliz",Residente (R),-100.1943898,17.4221123
Pheugopedius maculipectus,"chivirín moteado, saltapared moteado",Residente (R),-95.01698,18.35812
Philortyx fasciatus,"codorniz barrada, codorniz rayada",Residente (R),-99.5833333,17.3333333
Phoebastria albatrus,albatros rabón,Migratoria de invierno (MI); Oceánica (O),-116.1166667,30.5
Phoebastria immutabilis,albatros de Laysan,Residente (R); Transitoria (T); Oceánica (O),-114.034316,26.162883
Phoebastria nigripes,albatros patas negras,Transitoria (T); Oceánica (O),-117.7315,32.5833
Phoenicopterus ruber,flamenco americano,Residente (R),-88.1649882,21.5992128
Phylloscopus borealis,mosquitero Ártico,Accidental (A),-115.0833333,27.8466667
Phylloscopus fuscatus,"chipe sombrío, mosquitero sombrío",Accidental (A),-114.7220707,29.7325204
Phylloscopus inornatus,mosquitero cejas amarillas,Accidental (A),-109.778397,23.362384
Piaya cayana,"cuclillo canela, cuclillo canelo",Residente (R),-100.1943898,17.4221123
Pionus senilis,loro corona blanca,Residente (R),-91.577934,16.967433
Pipilo chlorurus,"rascador cola verde, toquí cola verde",Residente (R); Migratoria de invierno (MI),-110.0266921,23.5289481
Pipilo maculatus,"rascador moteado, toquí moteado",Residente (R); Migratoria de invierno (MI),-99.1195214,20.0073064
Pipilo ocai,"rascador de collar, toquí de collar",Residente (R),-99.834252,17.609779
Piranga bidentata,"piranga dorso rayado, tangara dorso rayado",Residente (R),-100.1943898,17.4221123
Piranga erythrocephala,"piranga cabeza roja, tangara cabeza roja",Residente (R),-96.4243948,15.9462477
Piranga flava,"piranga encinera, tangara encinera",Residente (R),-100.1943898,17.4221123
Piranga leucoptera,"piranga alas blancas, tangara ala blanca",Residente (R),-100.1943898,17.4221123
Piranga leucoptera leucoptera,tángara ala blanca,Residente (R),-92,15.8783333
Piranga ludoviciana,"piranga capucha roja, tangara capucha roja",Migratoria de invierno (MI),-100.1943898,17.4221123
Piranga olivacea,"piranga escarlata, tangara escarlata",Transitoria (T),-89.1290214,20.0197287
Piranga roseogularis,"piranga yucateca, tangara yucateca",Residente (R),-88.2753237,20.6385237
Piranga rubra,"piranga roja, tangara roja",Migratoria de invierno (MI); Migratoria de verano (MV),-109.544274,28.4573233
Pitangus sulphuratus,Luis bienteveo,Residente (R),-100.1943898,17.4221123
Platalea ajaja,espátula rosada,Residente (R); Migratoria de invierno (MI),-99.314067,25.6564671
Platyrinchus cancrominus,"mosquerito pico chato, mosquero pico chato",Residente (R),-89.0320753,18.4323762
Platyrinchus cancrominus cancrominus,mosquero pico chato,Residente (R),-95.035,16.8733333
Plegadis chihi,"ibis cara blanca, ibis ojos rojos",Residente (R); Migratoria de invierno (MI),-103.5738524,25.8777308
Plegadis falcinellus,ibis cara oscura,Residente (R); Migratoria de invierno (MI),-86.9636536,20.7586019
Pluvialis dominica,"chorlo dominico, chorlo dorado americano",Migratoria de invierno (MI),-97.0666667,20.5
Pluvialis fulva,"chorlo dorado del pacífico, chorlo fulvo",Migratoria de invierno (MI),-115.932317,30.4076294
Pluvialis squatarola,chorlo gris,Migratoria de invierno (MI),-89.838404,21.243586
Podiceps auritus,zambullidor cornudo,Migratoria de invierno (MI),-101.0959339,29.4590202
Podiceps grisegena,zambullidor cuello rojo,Accidental (A),-113.5259771,31.2996015
Podiceps nigricollis,zambullidor orejón,Residente (R); Migratoria de invierno (MI),-111.2332262,25.7185884
Podilymbus podiceps,zambullidor pico grueso,Residente (R); Migratoria de invierno (MI),-103.7434971,25.2729318
Poecile gambeli,carbonero cejas blancas,Transitoria (T),-115.8542121,32.0432978
Poecile sclateri,carbonero mexicano,Residente (R),-105.8714233,23.592585
Poecile sclateri sclateri,carbonero mexicano,Residente (R),-98.0416667,19.3283333
Poecilostreptus cabanisi,tangara chiapaneca,Residente (R),-92.14638,15.08608
Poecilotriccus sylvia,"espatulilla gris, mosquerito espatulilla gris",Residente (R),-87.3098356,20.3988183
Polioptila albiloris,perlita pispirria,Residente (R),-93.09415,16.80234
Polioptila albiloris albiloris,perlita pispirria,Residente (R),-95,16.67
Polioptila albiventris,perlita yucateca,Residente (R),-89.8413906,21.2487128
Polioptila bilineata,perlita tropical,Residente (R),-87.7313232,20.4823411
Polioptila caerulea,perlita azulgris,Residente (R); Migratoria de invierno (MI),-100.1943898,17.4221123
Polioptila californica,perlita californiana,Residente (R),-115.5833333,30.065
Polioptila melanura,perlita del desierto,Residente (R),-100.581523,25.021968
Polioptila nigriceps,perlita sinaloense,Residente (R),-109.5463004,28.4557269
Pooecetes gramineus,gorrión cola blanca,Migratoria de invierno (MI),-100.581523,25.021968
Pooecetes gramineus gramineus,gorrión cola blanca,Migratoria de invierno (MI),-97.5033333,25.8683333
Porphyrio martinicus,gallineta morada,Residente (R); Migratoria de invierno (MI),-93.0204045,18.1705908
Porzana carolina,polluela sora,Residente (R); Migratoria de invierno (MI),-99.4973373,19.1531034
Procellaria parkinsoni,petrel de Parkinson,Accidental (A); Oceánica (O),-113.0333333,28.8833333
Progne chalybea,"golondrina acerada, golondrina pecho gris",Residente (R); Migratoria de verano (MV),-100.1943898,17.4221123
Progne chalybea chalybea,golondrina acerada,Residente (R); Migratoria de verano (MV),-91.3061944,16.1730278
Progne sinaloae,golondrina sinaloense,Migratoria de verano (MV),-104.8519446,20.7609876
Progne subis,golondrina azulnegra,Migratoria de verano (MV); Transitoria (T),-89.0320753,18.4323762
Progne subis subis,golondrina azulnegra,Migratoria de verano (MV); Transitoria (T),-95.2166667,18.6966667
Progne tapera,golondrina pecho café,Accidental (A),-86.9935226,20.3690898
Protonotaria citrea,chipe dorado,Migratoria de invierno (MI),-93.3392684,15.6006862
Psaltriparus minimus,sastrecillo,Residente (R),-103.518863,19.533456
Psarocolius montezuma,oropéndola de Moctezuma,Residente (R),-95.01698,18.35812
Psarocolius wagleri,oropéndola cabeza castaña,Residente (R),-96.3405674,17.6638143
Psarocolius wagleri wagleri,oropéndola cabeza castaña,Residente (R),-91.3088056,16.1921111
Pseudastur albicollis,aguililla blanca,Residente (R),-95.01698,18.35812
Pseudobulweria rostrata,petrel de Isla Tahití,Accidental (A),-96.0151701,15.6019401
Psilorhinus morio,"chara papán, chara pea",Residente (R),-95.01698,18.35812
Psiloscops flammeolus,tecolote ojos oscuros,Residente (R); Migratoria de invierno (MI); Migratoria de verano (MV),-104.2786111,23.29
Psittacara holochlorus,perico mexicano,Residente (R),-98.947105,22.0814097
Psittacara strenuus,perico centroamericano,Residente (R),-94.2344438,16.4311108
Pterodroma cervicalis,petrel cuello blanco,Accidental (A),-114.481734,18.375745
Pterodroma cookii,petrel de Cook,Transitoria (T); Oceánica (O),-111.893265,23.393002
Pterodroma externa,"petrel de Isla Juan Fernández, petrel de Juan Fernández",Transitoria (T); Oceánica (O),-109.6092299,23.6186096
Pterodroma heraldica,petrel heráldico,Accidental (A),-109.27835,19.37982
Pterodroma neglecta,petrel de Kermadec,Transitoria (T); Oceánica (O),-116.786556,31.791303
Pteroglossus torquatus,tucancillo collarejo,Residente (R),-95.01698,18.35812
Pteroglossus torquatus torquatus,arasari de collar,Residente (R),-96.8333333,18.9166667
Ptiliogonys cinereus,capulinero gris,Residente (R),-100.1943898,17.4221123
Ptiliogonys cinereus cinereus,capulinero gris,Residente (R),-97.3,18.7166667
Ptychoramphus aleuticus,"alcuela oscura, alquita oscura",Residente (R); Oceánica (O),-113.1814109,26.8653891
Ptychoramphus aleuticus aleuticus,alcuela oscura,Residente (R); Oceánica (O),-115.7916667,29.7816667
Puffinus auricularis,"pardela de Islas Revillagigedo, pardela de Revillagigedo",Residente (R); Oceánica (O),-108.837507,18.789197
Puffinus auricularis auricularis,pardela de revillagigedo,Residente (R); Oceánica (O),-96.49,15.6633333
Puffinus lherminieri,pardela de Audubon,Accidental (A); Oceánica (O),-100.2667,16.85
Puffinus nativitatis,"pardela de Isla Navidad, pardela de Navidad",Transitoria (T); Oceánica (O),-96.5938568,15.5695215
Puffinus opisthomelas,pardela mexicana,Residente (R); Oceánica (O),-111.2557983,27.9689337
Puffinus puffinus,pardela boreal,Accidental (A); Oceánica (O),-113.0667,25.4333
Puffinus subalaris,pardela de Galápagos,Transitoria (T); Oceánica (O),-96.1231687,15.7468502
Pulsatrix perspicillata,búho de anteojos,Residente (R),-95.1468534,18.5228338
Pygochelidon cyanoleuca,golondrina albiazul,Accidental (A),-93.1166667,16.7416667
Pyrilia haematotis,loro cabeza oscura,Residente (R),-91.579609,16.970338
Pyrocephalus rubinus,"mosquero cardenal, papamoscas cardenalito",Residente (R); Migratoria de invierno (MI),-89.0320753,18.4323762
Quiscalus mexicanus,zanate mayor,Residente (R),-100.1943898,17.4221123
Quiscalus mexicanus mexicanus,zanate mexicano,Residente (R),-91.3097778,16.1940833
Quiscalus palustris,zanate del Lerma,Residente (R),-99.5203884,19.2429981
Quiscalus quiscula,"zanate común, zanate norteño",Accidental (A),-108.933239,26.998048
Rallus crepitans,"rascón costero del atlántico, rascón picudo",Residente (R); Migratoria de invierno (MI),-89.3485022,21.3274368
Rallus elegans,rascón real,Residente (R),-110.312738,24.142297
Rallus limicola,"rascón cara gris, rascón limícola",Residente (R); Migratoria de invierno (MI),-99.4973373,19.1531034
Rallus limicola limicola,rascón limícola,Residente (R); Migratoria de invierno (MI),-116.0166667,30.75
Rallus obsoletus,rascón costero del Pacífico,Residente (R),-109.2345923,26.405194
Rallus tenuirostris,rascón azteca,Residente (R),-103.2832499,20.404625
Ramosomyia violiceps,colibrí corona violeta,Residente (R),-103.3946993,20.7082516
Ramosomyia viridifrons,colibrí frente verde,Residente (R),-93.646946,16.1749128
Ramphastos sulfuratus,tucán pico canoa,Residente (R),-95.01698,18.35812
Ramphastos sulfuratus sulfuratus,tucán pico de canoa,Residente (R),-91.3078333,16.2024444
Ramphocaenus melanurus,"saltón picudo, soterillo picudo",Residente (R),-92.8918767,15.4802515
Ramphocelus passerinii,"tangara rabadilla roja, tangara terciopelo",Residente (R),-90.8980597,16.2064766
Ramphocelus sanguinolentus,"tangara rojinegra, tangara sanguinolenta",Residente (R),-91.577934,16.967433
Ramphotrigon flammulatum,"papamoscas jaspeado, papamoscas mexicano",Residente (R),-106.332947,23.4299623
Recurvirostra americana,avoceta americana,Residente (R); Migratoria de invierno (MI),-99.4973373,19.1531034
Regulus satrapa,"reyezuelo corona amarilla, reyezuelo de oro",Residente (R); Migratoria de invierno (MI),-99.1195214,20.0073064
Rhodinocichla rosea,"tangara cuitlacoche, tangara pecho rosa",Residente (R),-103.8955864,19.2922282
Rhodothraupis celaeno,picogordo cuello rojo,Residente (R),-99.2587,23.2363
Rhynchocyclus brevirostris,"mosquerito pico plano, mosquero de anteojos",Residente (R),-100.1943898,17.4221123
Rhynchocyclus brevirostris brevirostris,mosquero de anteojos,Residente (R),-91.3065833,16.2008333
Rhynchophanes mccownii,escribano de McCown,Migratoria de invierno (MI),-106.459,29.9198
Rhynchopsitta pachyrhyncha,cotorra serrana occidental,Migratoria de invierno (MI); Migratoria de verano (MV),-107.535,30.4166667
Rhynchopsitta terrisi,cotorra serrana oriental,Residente (R),-101.4483333,25.2016667
Rhytipterna holerythra,"mosquero canelo, plañidera alazán",Residente (R),-91.5111351,16.1157499
Rhytipterna holerythra holerythra,plañidera alazán,Residente (R),-95.0333333,17.1383333
Ridgwayia pinicola,"mirlo azteca, mirlo pinto",Residente (R),-99.66667,17.55
Riparia riparia,golondrina ribereña,Migratoria de invierno (MI); Migratoria de verano (MV); Transitoria (T),-87.2157115,20.5080057
Rissa tridactyla,gaviota patas negras,Migratoria de invierno (MI),-117.4754,32.5833
Rostrhamus sociabilis,gavilán caracolero,Residente (R),-88.2353052,18.8797935
Rupornis magnirostris,aguililla caminera,Residente (R),-89.89328,18.365054
Rynchops niger,rayador americano,Residente (R); Migratoria de invierno (MI),-95.9393388,18.9014617
Salpinctes obsoletus,"chivirín saltarroca, saltapared de rocas",Residente (R),-114.4300045,28.8824166
Saltator atriceps,"picurero cabeza negra, saltador cabeza negra",Residente (R),-100.1943898,17.4221123
Saltator atriceps atriceps,picurero cabeza negra,Residente (R),-91.3088056,16.1921111
Saltator grandis,"picurero grisáceo, saltador gris",Residente (R),-92.9896666,18.3187638
Saltator maximus,"picurero bosquero, saltador garganta ocre",Residente (R),-95.01698,18.35812
Sarcoramphus papa,zopilote rey,Residente (R),-89.3372508,17.8837125
Saucerottia beryllina,colibrí berilo,Residente (R),-100.1943898,17.4221123
Saucerottia cyanocephala,colibrí corona azul,Residente (R),-96.8967797,19.5173977
Saucerottia cyanura,colibrí cola azul,Residente (R),-92.1484124,15.0871128
Sayornis nigricans,papamoscas negro,Residente (R); Migratoria de invierno (MI),-109.5463004,28.4557269
Sayornis phoebe,papamoscas fibí,Migratoria de invierno (MI),-98.659125,25.7505063
Sayornis saya,papamoscas llanero,Residente (R); Migratoria de invierno (MI),-100.581523,25.021968
Sayornis saya saya,papamoscas llanero,Residente (R); Migratoria de invierno (MI),-101.43,20.7183333
Schiffornis veraepacis,"flautín cabezón mesoamericano, saltarín café",Residente (R),-90.9471962,16.1234976
Sclerurus guatemalensis,hojarasquero oscuro,Residente (R),-90.9410997,16.1124493
Sclerurus guatemalensis guatemalensis,hojarasquero oscuro,Residente (R),-91.6283333,16.8983333
Sclerurus mexicanus,"hojarasquero pecho canela, hojarasquero pecho rufo",Residente (R),-97.833064,20.510176
Sclerurus mexicanus mexicanus,hojarasquero pecho rufo,Residente (R),-96.9283333,19.545
Scolopax minor,"chocha americana, chocha del este",Accidental (A),-99.90146,26.11148
Seiurus aurocapilla,chipe suelero,Migratoria de invierno (MI),-100.1943898,17.4221123
Seiurus aurocapilla aurocapilla,chipe suelero,Migratoria de invierno (MI),-87.2516667,21.535
Selasphorus calliope,"colibrí garganta rayada, zumbador garganta rayada",Migratoria de invierno (MI); Migratoria de verano (MV),-103.518863,19.533456
Selasphorus ellioti,"zumbador guatemalteco, zumbador magenta",Residente (R),-92.085257,15.086542
Selasphorus heloisa,zumbador mexicano,Residente (R),-97.0159721,19.5298923
Selasphorus platycercus,zumbador cola ancha,Residente (R); Migratoria de invierno (MI); Migratoria de verano (MV),-99.6770748,19.2848132
Selasphorus rufus,"zumbador canelo, zumbador rufo",Migratoria de invierno (MI),-103.518863,19.533456
Selasphorus sasin,zumbador de Allen,Migratoria de invierno (MI); Migratoria de verano (MV),-99.1195214,20.0073064
Setophaga americana,"chipe pecho manchado, parula norteña",Migratoria de invierno (MI),-95.03569,18.52424
Setophaga caerulescens,chipe azulnegro,Migratoria de invierno (MI),-87.0163107,20.4039669
Setophaga castanea,chipe castaño,Transitoria (T),-86.8503195,21.1448081
Setophaga cerulea,"chipe celeste, chipe cerúleo",Migratoria de invierno (MI),-86.8503195,21.1448081
Setophaga chrysoparia,"chipe cachetes amarillos, chipe mejilla dorada",Migratoria de invierno (MI); Transitoria (T),-92.6398931,16.7344175
Setophaga citrina,chipe encapuchado,Migratoria de invierno (MI),-95.01698,18.35812
Setophaga coronata,"chipe coronado, chipe rabadilla amarilla",Residente (R); Migratoria de invierno (MI),-100.1943898,17.4221123
Setophaga discolor,chipe de pradera,Migratoria de invierno (MI),-87.01397,20.40559
Setophaga dominica,chipe garganta amarilla,Migratoria de invierno (MI),-88.3018971,18.493776
Setophaga fusca,chipe garganta naranja,Transitoria (T),-87.6154974,20.0784255
Setophaga graciae,chipe cejas amarillas,Residente (R); Migratoria de verano (MV),-100.1943898,17.4221123
Setophaga magnolia,chipe de magnolias,Migratoria de invierno (MI),-95.01698,18.35812
Setophaga nigrescens,chipe negrogris,Migratoria de invierno (MI),-97.4172547,18.9481856
Setophaga occidentalis,chipe cabeza amarilla,Migratoria de invierno (MI),-100.1943898,17.4221123
Setophaga palmarum,chipe playero,Migratoria de invierno (MI),-96.93015,19.42166
Setophaga pensylvanica,chipe flancos castaños,Migratoria de invierno (MI); Transitoria (T),-91.577934,16.967433
Setophaga petechia,chipe amarillo,Residente (R); Migratoria de invierno (MI); Migratoria de verano (MV); Transitoria (T),-89.0320753,18.4323762
Setophaga pinus,chipe pinero,Accidental (A),-89.949955,21.1992387
Setophaga pitiayumi,"chipe tropical, parula tropical",Residente (R); Migratoria de verano (MV),-96.4243948,15.9462477
Setophaga ruticilla,"chipe flameante, pavito migratorio",Migratoria de invierno (MI),-103.8682385,20.6696732
Setophaga striata,"chipe cabeza negra, chipe gorra negra",Transitoria (T),-87.2516667,21.535
Setophaga tigrina,chipe atigrado,Migratoria de invierno (MI),-99.4745064,21.2193009
Setophaga townsendi,"chipe de Townsend, chipe negroamarillo",Migratoria de invierno (MI),-100.1943898,17.4221123
Setophaga virens,chipe dorso verde,Migratoria de invierno (MI),-100.1943898,17.4221123
Sialia currucoides,azulejo pálido,Migratoria de invierno (MI),-115.9085083,32.0453328
Sialia mexicana,azulejo garganta azul,Residente (R); Migratoria de invierno (MI),-102.53333,22.16667
Sialia mexicana mexicana,azulejo garganta azul,Residente (R); Migratoria de invierno (MI),-99.4666667,17.35
Sialia sialis,azulejo garganta canela,Residente (R); Migratoria de invierno (MI),-100.1943898,17.4221123
Sialia sialis sialis,azulejo garganta canela,Residente (R); Migratoria de invierno (MI),-99.1833333,24.0166667
Sicalis luteola,gorrión canario sabanero,Residente (R),-96.0906816,19.0674862
Sitta canadensis,"bajapalos pecho canela, sita canadiense",Migratoria de invierno (MI),-115.9085083,32.0453328
Sitta carolinensis,"bajapalos pecho blanco, sita pecho blanco",Residente (R),-103.518863,19.533456
Sitta pygmaea,"bajapalos enano, sita enana",Residente (R),-99.0156555,19.1555466
Sittasomus griseicapillus,"trepatroncos cabeza gris, trepatroncos oliváceo",Residente (R),-100.1943898,17.4221123
Spatula clypeata,pato cucharón norteño,Migratoria de invierno (MI),-99.4973373,19.1531034
Spatula cyanoptera,cerceta canela,Residente (R); Migratoria de invierno (MI),-99.4973373,19.1531034
Spatula discors,cerceta alas azules,Migratoria de invierno (MI),-99.4973373,19.1531034
Spatula querquedula,cerceta cejas blancas,Accidental (A),-109.6836422,23.0549758
Sphyrapicus nuchalis,"carpintero nuca roja, chupasavia nuca roja",Migratoria de invierno (MI),-100.3548395,25.6080101
Sphyrapicus ruber,"carpintero pecho rojo, chupasavia cabeza roja",Migratoria de invierno (MI),-115.9085083,32.0453328
